X,Y,LICENSE,APPLICANT,TRADE_NAME,CLASS,ADDRESS,ZIPCODE,WARD,ANC,SMD,STATUS,TYPE,BREW_PUB,ENTERTAINMENT,SALES_CONSUMPTION,SIDEWALK_CAFE,SUMMER_GARDEN,TASTING,WINE_PUB,COVERCHARGE,DANCING,OFFPREMISESTORAGE,STORAGEFACILITY,DISTILLERY_PUB,TOTAL_CAPACITY,GAMES_OF_SKILL,SPORTS_WAGGERING,CARRYOUT_DELIVERY,STREATERY,EXPIRATION_DATE,CO_CAPACITY,XCOORD,YCOORD,LONGITUDE,LATITUDE,MAR_ID,GIS_ID,GLOBALID,CREATED,EDITED,SHAPE,OBJECTID
-8576447.86339929,4710523.05591279,ABRA-007053,The Billiken Corp,Perry's Restaurant,C,1811 COLUMBIA ROAD NW,20009,Ward 1,ANC 1C,SMD 1C03,Active,Restaurant,,CHECKED,,,CHECKED,,,,,,,,173,,,CHECKED,,2025/03/31 04:00:00+00,173,396224.37,139361.61,-77.04353969,38.92211949,235375,ABCALicenseePt_19670,{620F1B52-8CB4-478A-987A-7418C25EC374},2024/08/05 23:21:02+00,2025/02/28 21:54:16+00,,19670
-8578373.55124328,4708017.5074494,ABRA-008004,Melben Inc.,Flavio,C,1069 31ST STREET NW,20007,Ward 2,ANC 2E,SMD 2E05,Active,Restaurant,,CHECKED,,CHECKED,,,,CHECKED,CHECKED,,,,450,,,,,2025/03/31 04:00:00+00,450,394722.98,137418.36,-77.0608384369216,38.9046059726872,307837,ABCALicenseePt_19671,{51585D44-712D-4987-9E91-6E1B03AA7FD3},2024/08/05 23:21:02+00,2025/02/28 21:54:16+00,,19671
-8576621.20263466,4709218.09762037,ABRA-011228,R Street Restaurant Corporation,La Tomate,C,1701 CONNECTICUT AVENUE NW,20009,Ward 2,ANC 2B,SMD 2B01,Active,Restaurant,,CHECKED,,CHECKED,,,,,,,,,105,,,CHECKED,,2025/03/31 04:00:00+00,105,396088.84,138349.19,-77.04509683,38.91299868,243323,ABCALicenseePt_19672,{28B910EC-4704-4EA8-B4A7-1D8E4D1F6DB4},2024/08/05 23:21:02+00,2025/02/28 21:54:16+00,,19672
-8579983.85201545,4709077.23730604,ABRA-012331,President & Director of Georgetown College,Leavey Center,C,3800 RESERVOIR ROAD NW,20007,Ward 2,ANC 2E,SMD 2E01,Active,Restaurant,,,,,,,,,,,,,290,,,,,2025/03/31 04:00:00+00,290,393468.94,138241.62,-77.07530401,38.91201376,291547,ABCALicenseePt_19673,{DF0197E4-EA11-45DE-9603-A926A920C6D4},2024/08/05 23:21:02+00,2025/02/28 21:54:16+00,,19673
-8571779.66748977,4696277.02029388,ABRA-016866,"4652 Livingston, Inc.",South Capitol Liquors,A,4652 LIVINGSTON ROAD SE,20032,Ward 8,ANC 8E,SMD 8E09,Active,Retail - Liquor Store,,,,,,CHECKED,,,,,,,,,,,,2027/03/31 04:00:00+00,,399860.66,128300.6,-77.00160459,38.82248557,276657,ABCALicenseePt_19674,{BFB36220-2E18-4EC1-8BD3-88D9A29EA404},2024/08/05 23:21:02+00,2025/02/28 21:54:16+00,,19674
-8576443.49676425,4710356.5272934,ABRA-017199,"Brasil, Inc.",The Grill From Ipanema,C,1858 COLUMBIA ROAD NW,20009,Ward 1,ANC 1C,SMD 1C03,Active,Restaurant,,CHECKED,,CHECKED,,,,,,,,,146,,,,,2025/03/31 04:00:00+00,146,396227.71,139232.41,-77.04350047,38.92095563,276265,ABCALicenseePt_19675,{E3AD9926-1506-4CBD-8F7A-C063E5E123EF},2024/08/05 23:21:02+00,2025/02/28 21:54:16+00,,19675
-8575037.17782027,4708000.07983468,ABRA-060411,Carriage House LLC,Green Lantern/Tool Shed,C,1335 GREEN COURT NW,20005,Ward 2,ANC 2C,SMD 2C02,Active,Nightclub,,,,,,,,,,,,,125,,,CHECKED,,2025/09/30 04:00:00+00,125,397322.62,137403.53,-77.03086729,38.90448448,279092,ABCALicenseePt_19676,{5B9ACC9D-A253-44E8-B025-F5DFE4AED016},2024/08/05 23:21:02+00,2025/02/28 21:54:16+00,,19676
-8575129.35524319,4706861.55348297,ABRA-076197,"Lim Enterprises, Corp",Press Liquors,A,527 14TH STREET NW,20004,Ward 2,ANC 2C,SMD 2C03,Active,Retail - Liquor Store,,,,,,,,,,,,,,,,,,2027/03/31 04:00:00+00,,397250.49,136519.99,-77.03169534,38.89652501,295084,ABCALicenseePt_19677,{6AD596FE-7877-4136-88F3-CB548422A9FE},2024/08/05 23:21:02+00,2025/02/28 21:54:16+00,,19677
-8576329.36146848,4708772.62487643,ABRA-103525,"Saul Urban Host, LLC",Saul Urban Host,C,15 DUPONT CIRCLE NW,20036,Ward 2,ANC 2B,SMD 2B07,Active,Tavern,,,,,,,,,,,,,48,,,CHECKED,,2025/09/30 04:00:00+00,48,396316.05,138003.42,-77.04247517,38.90988485,225555,ABCALicenseePt_19679,{ABD53B47-6109-49F0-9212-34DA7F1EB3CF},2024/08/05 23:21:02+00,2025/02/28 21:54:16+00,,19679
-8575495.73511739,4707934.73495647,ABRA-112211,"Midtown Center Restaurant, LLC",Dauphine's,C,1100 15TH STREET NW,20005,Ward 2,ANC 2C,SMD 2C02,Active,Restaurant,,CHECKED,,,CHECKED,,,,,,,,379,,,CHECKED,,2025/03/31 04:00:00+00,328,396965.3,137352.95,-77.03498658,38.90402734,278811,ABCALicenseePt_19680,{8226A2E3-AF68-440E-AF95-44AF742442E9},2024/08/05 23:21:02+00,2025/02/28 21:54:16+00,,19680
-8574356.21516807,4708307.57985044,ABRA-114552,"Causa, LLC",Causa,C,920 REAR N STREET NW,20001,Ward 2,ANC 2G,SMD 2G04,Active,Restaurant,,CHECKED,,,CHECKED,,,,,,,,200,,,,,2025/03/31 04:00:00+00,200,397853.28,137641.99,-77.0247501,38.90663406,312195,ABCALicenseePt_19681,{EFEDDD49-BE84-449F-9D2A-B9449AE912EB},2024/08/05 23:21:02+00,2025/02/28 21:54:16+00,,19681
-8580505.89261422,4714524.0599319,ABRA-117245,"Dancing Crab, LLC",TBD,C,4611 41ST STREET NW,20016,Ward 3,ANC 3E,SMD 3E05,Safekeeping,Restaurant,,CHECKED,,CHECKED,CHECKED,,,CHECKED,,,,,274,,,,,2022/03/31 04:00:00+00,274,393065.92,142467.23,-77.0799935766164,38.9500762468243,284944,ABCALicenseePt_19682,{8C9145F9-C4A2-4C41-9D42-67A974702747},2024/08/05 23:21:02+00,2025/02/28 21:54:16+00,,19682
-8580144.61892776,4716842.1214278,ABRA-120238,"Belleva, LLC",Wine and Organic,B,5714 CONNECTICUT AVENUE NW,20015,Ward 3,ANC 3/4G,SMD 3/4G06,Active,Beer and Wine,,,,,,CHECKED,,,,,,,,,,,,2026/09/30 04:00:00+00,,393348.75,144264.5,-77.0767482,38.96626904,285262,ABCALicenseePt_19683,{327903AC-A52F-4013-8407-390CC39F3889},2024/08/05 23:21:02+00,2025/02/28 21:54:16+00,,19683
,,ABRA-084620,Ron Hunt,Heat,C,0 No Location,,,,,Safekeeping,Night Club,,,,,,,,,,,,,,,,,,,,,,,,,ABCALicenseePt_20161,{7D0E102D-EBFB-43E1-A442-DED1C73501FF},2025/02/28 21:08:53+00,2025/02/28 21:54:16+00,,20161
-8571847.00818834,4706957.44987435,ABRA-098204,"UK 3rd, LLC",Union Kitchen,B,538 3RD STREET NE,20002,Ward 6,ANC 6C,SMD 6C04,Active,Retail - Full Service Grocery,,,,,,CHECKED,,,,,,,,,,,,2026/09/30 04:00:00+00,,399808.33,136593.94,-77.00220952,38.89719546,9536,ABCALicenseePt_20481,{9A44947F-E4FF-4054-B705-865C09C16082},2025/02/28 21:50:13+00,2025/02/28 21:54:16+00,,20481
-8571082.55362725,4704727.18305451,ABRA-086529,"Good Food, LLC",Lavagna,C,539 8TH STREET SE,20003,Ward 6,ANC 6B,SMD 6B03,About to Expire,Restaurant,,,,CHECKED,,,,,,,,,100,,,CHECKED,,2025/03/31 04:00:00+00,100,400404.13,134862.86,-76.99534231,38.88160117,9343,ABCALicenseePt_20482,{1D21906A-F04F-498B-BDBF-D2265ACBC219},2025/02/28 21:50:13+00,2025/02/28 21:54:16+00,,20482
-8571154.06785909,4707347.73738544,ABRA-104296,"AKC Briceno, LLC",Taqueria Rosticeria Fresca,C,701 H STREET NE,20002,Ward 6,ANC 6A,SMD 6A02,About to Expire,Restaurant,,CHECKED,,CHECKED,,,,,,,,,49,,,CHECKED,,2025/03/31 04:00:00+00,49,400348.3,136896.84,-76.99598473,38.89992404,9,ABCALicenseePt_20483,{97C38007-7166-4604-9F7E-CB39B01381CB},2025/02/28 21:50:13+00,2025/02/28 21:54:16+00,,20483
-8571201.29957206,4705230.72797755,ABRA-117744,"APQ Capitol Hill DC, LLC",Le Pain Quotidien,D,666 PENNSYLVANIA AVENUE SE,20003,Ward 6,ANC 6B,SMD 6B02,About to Expire,Restaurant,,,,CHECKED,,,,,,,,,80,,,,,2025/03/31 04:00:00+00,80,400311.56,135253.73,-76.99640903,38.88512231,895,ABCALicenseePt_20484,{369792B6-F71B-400E-AD36-E3512A1F6E35},2025/02/28 21:50:13+00,2025/02/28 21:54:16+00,,20484
-8565183.97233277,4706982.45161784,ABRA-118369,"Heights, LLC",Heights Liquor,A,547 42ND STREET NE,20019,Ward 7,ANC 7C,SMD 7C09,Issued,Retail - Liquor Store,,,,,,,,,,,,,,,,,,2027/03/31 04:00:00+00,,405000.58,136614.92,-76.9423544709984,38.8973699160419,8635,ABCALicenseePt_20485,{52A40CF4-736F-4409-8385-57B125DF00A8},2025/02/28 21:50:13+00,2025/02/28 21:54:16+00,,20485
-8571168.14809302,4708807.54954103,ABRA-095111,"Angelika Film Center Union Market, LLC",Angelika Pop-Up,C,550 PENN STREET NE,20002,Ward 5,ANC 5D,SMD 5D01,Active,Tavern,,,,,,,,,,,,,296,,,CHECKED,,2025/09/30 04:00:00+00,296,400337.28,138029.67,-76.99611122,38.91012864,8479,ABCALicenseePt_20486,{2572EE11-3744-4E38-8662-7D151EBC1ABD},2025/02/28 21:50:13+00,2025/02/28 21:54:16+00,,20486
-8570571.42258914,4709854.55199658,ABRA-118102,"Brentwood Wine Company, LLC",Benchmark Wine & Spirits/Brentwood Wine DC,A,955 V STREET NE,20018,Ward 5,ANC 5C,SMD 5C05,Active,Retail - Liquor Store,,,,,,CHECKED,,,,,,,,,,,,2027/03/31 04:00:00+00,,400802.12,138842.09,-76.99075074,38.91744723,82900,ABCALicenseePt_20487,{864CDB9E-DD13-42A8-9B16-BCC924E78273},2025/02/28 21:50:13+00,2025/02/28 21:54:16+00,,20487
-8570571.42258914,4709854.55199658,ABRA-125121,"Barrel Nation DC, LLC",Barrel Nation,A,955 V STREET NE,20018,Ward 5,ANC 5C,SMD 5C05,Active,Internet,,,,,,,,,,,,,,,,,,2027/03/31 04:00:00+00,,400802.12,138842.09,-76.99075074,38.91744723,82900,ABCALicenseePt_20488,{3EC51237-7901-4CCD-A2ED-00A58667004E},2025/02/28 21:50:13+00,2025/02/28 21:54:16+00,,20488
-8570571.42258914,4709854.55199658,ABRA-128240,"Served Neat, LLC",Served Neat,A,955 V STREET NE,20018,Ward 5,ANC 5C,SMD 5C05,Active,Internet,,,,,,,,,,,,,,,,,,2027/03/31 04:00:00+00,,400802.12,138842.09,-76.99075074,38.91744723,82900,ABCALicenseePt_20489,{B1AF9776-741B-46B0-A23D-44DCF856E8DC},2025/02/28 21:50:13+00,2025/02/28 21:54:16+00,,20489
-8570837.11713566,4704925.74880947,ABRA-086926,The Old Naval Hospital Foundation,Hill Center,C,921 PENNSYLVANIA AVENUE SE,20003,Ward 6,ANC 6B,SMD 6B04,About to Expire,Multipurpose,,CHECKED,,,CHECKED,,,,,,,,738,,,,,2025/03/31 04:00:00+00,738,400595.42,135017.01,-76.9931375198553,38.8829893661359,82564,ABCALicenseePt_20490,{F72C51ED-EC73-4032-82F1-1C569152DCCA},2025/02/28 21:50:13+00,2025/02/28 21:54:16+00,,20490
-8570837.11713566,4704925.74880947,ABRA-107792,Danny Boy LLC,Little Pearl,C,921 PENNSYLVANIA AVENUE SE,20003,Ward 6,ANC 6B,SMD 6B04,About to Expire,Restaurant,,CHECKED,,,CHECKED,,,,CHECKED,CHECKED,,,80,,,CHECKED,,2025/03/31 04:00:00+00,80,400595.42,135017.01,-76.9931375198553,38.8829893661359,82564,ABCALicenseePt_20491,{DB41304F-0B93-460A-9492-FB24FACC70D2},2025/02/28 21:50:13+00,2025/02/28 21:54:16+00,,20491
-8570829.6262652,4711185.6837289,ABRA-097516,Right Forward LLC,Right Proper Brewing Company,C,920 GIRARD STREET NE,20017,Ward 5,ANC 5B,SMD 5B04,Active,Tavern,CHECKED,,,CHECKED,,,,,,,,,,,,,CHECKED,2025/09/30 04:00:00+00,,400600.89,139874.8,-76.99307023,38.92675037,82519,ABCALicenseePt_20492,{CB4E7636-ACB0-47C1-9E1F-6995A75A7839},2025/02/28 21:50:13+00,2025/02/28 21:54:16+00,,20492
-8570835.73696751,4707420.48300558,ABRA-128130,"Cloud Liquor and Wine, Inc.",Cloud Liquor and Wine,A,914 H STREET NE,20002,Ward 6,ANC 6A,SMD 6A02,Active,Retail - Liquor Store,,,,,,CHECKED,,,,,,,,,,,,2027/03/31 04:00:00+00,,400596.35,136953.31,-76.99312512,38.90043261,82251,ABCALicenseePt_20493,{EF11A683-CDBA-4726-AC7D-7F0BA1A55B91},2025/02/28 21:50:13+00,2025/02/28 21:54:16+00,,20493
-8569689.81622246,4707585.06223952,ABRA-060822,"Yi Kheng Ung Liquors, LLC",Roses Queen Liquors,A,830 BLADENSBURG ROAD NE,20002,Ward 5,ANC 5D,SMD 5D07,Active,Retail - Liquor Store,,,,,,CHECKED,,,,,,,,,,,,2027/03/31 04:00:00+00,,401489.26,137081.15,-76.98283114,38.90158318,81066,ABCALicenseePt_20494,{B2E80063-93D3-4B9B-B369-E9FA1EA5E0E3},2025/02/28 21:50:13+00,2025/02/28 21:54:16+00,,20494
-8570926.13381315,4707424.52262356,ABRA-121599,"District Restaurant Group, LLC",Chupacabra,C,822 H STREET NE,20002,Ward 6,ANC 6A,SMD 6A02,About to Expire,Restaurant,,,,CHECKED,CHECKED,,,,,,,,95,,,CHECKED,,2025/03/31 04:00:00+00,95,400525.91,136956.44,-76.99393717,38.90046052,80748,ABCALicenseePt_20495,{29EF0DB0-C3CA-4E0B-BE6A-68F70C10B0BC},2025/02/28 21:50:13+00,2025/02/28 21:54:16+00,,20495
-8570954.64933342,4707422.5916445,ABRA-125771,"816 Dirty Water, LLC",Dirty Water,C,816 H STREET NE,20002,Ward 6,ANC 6A,SMD 6A02,Active,Tavern,,CHECKED,,,CHECKED,,,CHECKED,CHECKED,,,,198,CHECKED,CHECKED,CHECKED,,2025/09/30 04:00:00+00,198,400503.69,136954.94,-76.99419333,38.90044735,80400,ABCALicenseePt_20496,{3C9F69F9-0945-4B27-9665-ED50C6AC06BB},2025/02/28 21:50:13+00,2025/02/28 21:54:16+00,,20496
-8571016.07357322,4706672.0112134,ABRA-118158,"Exotic Wine & Spirits, Inc.",Exotic Wine & Spirits,A,801 MARYLAND AVENUE NE,,Ward 6,ANC 6A,SMD 6A03,Active,Retail - Liquor Store,,,,,,CHECKED,,,,,,,,,,,,2027/03/31 04:00:00+00,,400455.86,136372.42,-76.9947451116407,38.8951994922977,79622,ABCALicenseePt_20497,{47AE48F8-54E1-4E58-AE3A-7796E4DCF2A8},2025/02/28 21:50:13+00,2025/02/28 21:54:16+00,,20497
-8571069.73893184,4704436.44774131,ABRA-108986,"Torai Grill & Sushi, Inc.",Torai Grill & Sushi,D,751 8TH STREET SE,20003,Ward 6,ANC 6B,SMD 6B03,Active,Restaurant,,,,CHECKED,,,,,,,,,20,,,CHECKED,,2028/03/31 04:00:00+00,20,400414.13,134637.17,-76.9952272,38.87956806,78893,ABCALicenseePt_20498,{4F60E087-5121-4657-9B08-F9FB642F595F},2025/02/28 21:50:13+00,2025/02/28 21:54:16+00,,20498
-8571081.37187044,4704502.81586566,ABRA-105743,"Sushi Hachi, Inc.",Sushi Hachi,C,735 8TH STREET SE,20003,Ward 6,ANC 6B,SMD 6B03,About to Expire,Restaurant,,,,CHECKED,,,,,,,,,88,,,CHECKED,,2025/03/31 04:00:00+00,88,400405.06,134688.69,-76.9953317,38.88003184,78449,ABCALicenseePt_20499,{9009D0FA-44C5-429F-81B6-0A62B66C933E},2025/02/28 21:50:13+00,2025/02/28 21:54:16+00,,20499
-8571064.90972528,4706737.77739305,ABRA-126404,"Bakhtar Group, LLC",Pascual,C,732 MARYLAND AVENUE NE,20002,Ward 6,ANC 6A,SMD 6A03,About to Expire,Restaurant,,,,CHECKED,,,,,,,,,20,,,,,2025/03/31 04:00:00+00,20,400417.8,136423.46,-76.99518381,38.8956593,78355,ABCALicenseePt_20500,{DB9FA010-3113-4F2B-BD5A-C72301F81156},2025/02/28 21:50:13+00,2025/02/28 21:54:16+00,,20500
-8571071.1049398,4704566.41364905,ABRA-071793,"Partners At 723 8th St SE, LLC",The Ugly Mug Dining Saloon/Valor Brew Pub,C,723 8TH STREET SE,20003,Ward 6,ANC 6B,SMD 6B03,About to Expire,Restaurant,CHECKED,CHECKED,,CHECKED,,,,CHECKED,,,,,194,CHECKED,,CHECKED,,2025/03/31 04:00:00+00,194,400413.06,134738.06,-76.99523947,38.88047692,77857,ABCALicenseePt_20501,{E33C6904-3B8A-40BF-9EF0-E7CBF4B29E8D},2025/02/28 21:50:13+00,2025/02/28 21:54:16+00,,20501
-8571071.1049398,4704566.41364905,ABRA-113790,"Partners At 723 8th St SE, LLC",The Ugly Mug /Valor Brew Pub,Caterer,723 8TH STREET SE,20003,Ward 6,ANC 6B,SMD 6B03,About to Expire,Caterer,,,,,,,,,,,,,,,,,,2025/03/31 04:00:00+00,,400413.06,134738.06,-76.99523947,38.88047692,77857,ABCALicenseePt_20502,{E719BB77-854F-40CF-837C-EB96DA62676C},2025/02/28 21:50:13+00,2025/02/28 21:54:16+00,,20502
-8571081.11168331,4704573.46063263,ABRA-119954,"RRG Catering, LLC",Extra Fancy,C,721 8TH STREET SE,20003,Ward 6,ANC 6B,SMD 6B03,About to Expire,Restaurant,,,,,,,,,,,,,40,,,CHECKED,,2025/03/31 04:00:00+00,40,400405.26,134743.53,-76.99532936,38.88052619,77712,ABCALicenseePt_20503,{6050A45D-BB01-4526-B583-8BC3F8B5E60D},2025/02/28 21:50:13+00,2025/02/28 21:54:16+00,,20503
-8571081.11168331,4704573.46063263,ABRA-123471,"RRG Catering, LLC",Extra Fancy,B,721 8TH STREET SE,20003,Ward 6,ANC 6B,SMD 6B03,Active,Internet,,,,,,,,,,,,,,,,,,2026/09/30 04:00:00+00,,400405.26,134743.53,-76.99532936,38.88052619,77712,ABCALicenseePt_20504,{13F9589E-53E3-4994-9A9D-C0AF63E0B29A},2025/02/28 21:50:13+00,2025/02/28 21:54:16+00,,20504
-8571081.11168331,4704573.46063263,ABRA-126708,"RRG Catering, LLC",Rose's at Home,Caterer,721 8TH STREET SE,20003,Ward 6,ANC 6B,SMD 6B03,About to Expire,Caterer,,,,,,,,,,,,,,,,,,2025/03/31 04:00:00+00,,400405.26,134743.53,-76.99532936,38.88052619,77712,ABCALicenseePt_20505,{1EB2A96E-F329-4951-858A-114230236F67},2025/02/28 21:50:13+00,2025/02/28 21:54:16+00,,20505
-8571081.45722471,4704590.33611642,ABRA-090884,Rose's 1 LLC,Rose's Luxury,C,717 8TH STREET SE,20003,Ward 6,ANC 6B,SMD 6B03,About to Expire,Restaurant,,,,CHECKED,,,,,,,,,108,,,,,2025/03/31 04:00:00+00,108,400404.99,134756.63,-76.99533246,38.88064387,77418,ABCALicenseePt_20506,{5948DAEB-A2EA-488E-BE18-AEEFC178004A},2025/02/28 21:50:13+00,2025/02/28 21:54:16+00,,20506
-8571081.25154517,4704598.2972132,ABRA-098700,Elaine's One LLC,Pineapple and Pearls,C,715 8TH STREET SE,20003,Ward 6,ANC 6B,SMD 6B03,About to Expire,Restaurant,,,,CHECKED,,,,,,,,,90,,,,,2025/03/31 04:00:00+00,90,400405.15,134762.81,-76.99533062,38.88069988,77280,ABCALicenseePt_20507,{784F93FA-2A90-48A9-A6BD-E971E75D1BE5},2025/02/28 21:50:13+00,2025/02/28 21:54:16+00,,20507
-8571081.25105017,4704608.02316983,ABRA-118297,"Crazy Aunt Helen's, LLC",Crazy Aunt Helen's,C,713 8TH STREET SE,20003,Ward 6,ANC 6B,SMD 6B03,Safekeeping,Tavern,,CHECKED,,CHECKED,,,,CHECKED,CHECKED,,,,175,CHECKED,,,CHECKED,2025/09/30 04:00:00+00,175,400405.15,134770.36,-76.99533061,38.88076756,77119,ABCALicenseePt_20508,{5A42272E-2326-4149-9587-AFEBEC6616C8},2025/02/28 21:50:13+00,2025/02/28 21:54:16+00,,20508
-8571081.25105017,4704608.02316983,ABRA-128254,Mary Quillian Helms,TBD,C,713 8TH STREET SE,20003,Ward 6,ANC 6B,SMD 6B03,Safekeeping,Tavern,,CHECKED,,CHECKED,,,,CHECKED,CHECKED,,,,175,CHECKED,,,CHECKED,2025/09/30 04:00:00+00,175,400405.15,134770.36,-76.99533061,38.88076756,77119,ABCALicenseePt_20509,{5610DB90-4EBA-4CDE-9BDC-D5465D61D666},2025/02/28 21:50:13+00,2025/02/28 21:54:16+00,,20509
-8571117.09559807,4707348.88249632,ABRA-108303,"Allure Lounge, LLC",Allure Lounge,C,711 H STREET NE,20002,Ward 6,ANC 6A,SMD 6A02,Active,Tavern,,CHECKED,,,,,,,,,,,69,CHECKED,,,,2025/09/30 04:00:00+00,69,400377.11,136897.73,-76.99565261,38.89993205,76945,ABCALicenseePt_20510,{2EFC39B5-D306-4108-B58E-B5E292648F40},2025/02/28 21:50:13+00,2025/02/28 21:54:16+00,,20510
-8571075.33611385,4704616.92437735,ABRA-086141,"Lola's, LLC",Lola's,C,711 8TH STREET SE,20003,Ward 6,ANC 6B,SMD 6B03,Active,Tavern,,CHECKED,,CHECKED,,,,,,,,,90,CHECKED,,CHECKED,,2025/04/19 04:00:00+00,90,400409.76,134777.27,-76.99527748,38.8808298,76927,ABCALicenseePt_20511,{D4DAE66C-7D58-4348-BE19-39E49E3480E1},2025/02/28 21:50:13+00,2025/02/28 21:54:16+00,,20511
-8571112.20275578,4707420.43569383,ABRA-097473,"T and A, LLC",Montana Liquors,A,710 H STREET NE,20002,Ward 6,ANC 6A,SMD 6A02,Active,Retail - Liquor Store,,,,,,CHECKED,,,,,,,,,,,,2027/03/31 04:00:00+00,,400380.92,136953.26,-76.99560865,38.90043228,76847,ABCALicenseePt_20512,{58D3ECA8-A5CE-4F4F-AE3D-18C2D6C38008},2025/02/28 21:50:13+00,2025/02/28 21:54:16+00,,20512
-8571124.24342603,4707353.56027294,ABRA-129463,"MSWM, Inc.",Tiffany's Bar and Bistro,C,709 H STREET NE,20002,Ward 6,ANC 6A,SMD 6A02,About to Expire,Restaurant,,,,,CHECKED,,,,,,,,184,,,CHECKED,,2025/03/31 04:00:00+00,,400371.54,136901.36,-76.99571682,38.89996475,76768,ABCALicenseePt_20513,{F95E1D76-E8A2-4B6D-8C1F-82C125229269},2025/02/28 21:50:13+00,2025/02/28 21:54:16+00,,20513
-8571131.69976071,4707347.24672499,ABRA-121350,"Elmar, LLC",Vision Lounge,C,707 H STREET NE,20002,Ward 6,ANC 6A,SMD 6A02,Active,Tavern,,CHECKED,,,,,,,,,,,95,,,,,2025/09/30 04:00:00+00,59,400365.73,136896.46,-76.9957838,38.89992061,76627,ABCALicenseePt_20514,{5F4DC447-7D6D-4700-B26E-B09C89D24A28},2025/02/28 21:50:13+00,2025/02/28 21:54:16+00,,20514
-8572193.16771307,4707832.10719272,ABRA-118178,"Arpan, LLC",Uncorked,A,1005 1ST STREET NE,20002,Ward 6,ANC 6E,SMD 6E07,Active,Retail - Liquor Store,,,,,,CHECKED,,,,,,,,,,,,2027/03/31 04:00:00+00,,399538.62,137272.74,-77.00531912,38.9033099,76315,ABCALicenseePt_20515,{DCE21E82-0235-4F2D-A981-3A915098DE5D},2025/02/28 21:50:13+00,2025/02/28 21:54:16+00,,20515
-8572193.16771307,4707832.10719272,ABRA-123609,"TB NoMa, LLC",Ted's Bulletin,C,1005 1ST STREET NE,20002,Ward 6,ANC 6E,SMD 6E07,About to Expire,Restaurant,,,,CHECKED,CHECKED,,,,,,,,209,,,,,2025/03/31 04:00:00+00,209,399538.62,137272.74,-77.00531912,38.9033099,76315,ABCALicenseePt_20516,{E2DD870F-946D-4A04-8E95-5A62D6CA1ACC},2025/02/28 21:50:13+00,2025/02/28 21:54:16+00,,20516
-8572199.0542196,4704042.03495014,ABRA-119694,"PT Opco, LLC",Pink Taco,C,100 M STREET SE,20003,Ward 6,ANC 8F,SMD 8F04,Active,Tavern,,CHECKED,,CHECKED,CHECKED,,,,,,,,410,,,CHECKED,,2025/09/30 04:00:00+00,350,399533.86,134330.99,-77.00537201,38.87680951,76100,ABCALicenseePt_20517,{F78A0754-DA48-4B86-9E68-E3969825FB27},2025/02/28 21:50:13+00,2025/02/28 21:54:16+00,,20517
-8572483.29394328,4704205.45413391,ABRA-097672,"BCDC, LLC",Bonchon,C,1015 HALF STREET SE,20003,Ward 6,ANC 8F,SMD 8F04,About to Expire,Restaurant,,,,CHECKED,,,,,,,,,169,,,CHECKED,,2025/03/31 04:00:00+00,169,399312.31,134457.87,-77.00792537,38.87795235,75572,ABCALicenseePt_20518,{BAF4D6AD-C7F0-418F-9838-CD25ACC9620E},2025/02/28 21:50:13+00,2025/02/28 21:54:16+00,,20518
-8572483.29394328,4704205.45413391,ABRA-110767,"Malfam, LLC",Hill Spirits Unlimited,A,1015 HALF STREET SE,20003,Ward 6,ANC 8F,SMD 8F04,Active,Retail - Liquor Store,,,,,,CHECKED,,,,,,,,,,,,2027/03/31 04:00:00+00,,399312.31,134457.87,-77.00792537,38.87795235,75572,ABCALicenseePt_20519,{20A60B7D-0780-424C-B5B8-FC1E1A73418E},2025/02/28 21:50:13+00,2025/02/28 21:54:16+00,,20519
-8570717.12565705,4707350.89139611,ABRA-084689,Another Round LLC,The Haymaker Bar,C,1015 H STREET NE,20002,Ward 6,ANC 6A,SMD 6A02,Active,Tavern,,CHECKED,,,,,,,,,,,56,,,CHECKED,,2025/09/30 04:00:00+00,56,400688.78,136899.31,-76.99205962,38.89994609,75571,ABCALicenseePt_20520,{404D02C2-4DE0-49F5-BA10-DE1573B87C63},2025/02/28 21:50:13+00,2025/02/28 21:54:16+00,,20520
-8570678.24768972,4705860.60706389,ABRA-105990,"Wineandbutter, LLC",wine and butter,B,1023 EAST CAPITOL STREET SE,20003,Ward 6,ANC 6B,SMD 6B05,Active,Retail - Class B,,,,,,CHECKED,,,,,,,,,,,,2026/09/30 04:00:00+00,,400719.18,135742.67,-76.99171037,38.88952663,75210,ABCALicenseePt_20521,{DC8E6434-5306-4E05-87CB-F90950A0CCD3},2025/02/28 21:50:13+00,2025/02/28 21:54:16+00,,20521
-8570269.36914486,4705845.80979041,ABRA-123546,"The Italian Job, LLC",Pacci's,C,106 13TH STREET SE,20003,Ward 6,ANC 6B,SMD 6B06,About to Expire,Restaurant,,,,,,,,,,,,,70,,,,,2025/03/31 04:00:00+00,70,401037.84,135731.22,-76.98803735,38.88942316,74957,ABCALicenseePt_20522,{ECC4E61F-23FA-487C-9D92-D8A5DEB15B22},2025/02/28 21:50:13+00,2025/02/28 21:54:16+00,,20522
-8571003.58300538,4704121.92553947,ABRA-100267,Las Placitas Inc.,Las Placitas,C,1100 8TH STREET SE,20003,Ward 8,ANC 8F,SMD 8F01,About to Expire,Restaurant,,,,CHECKED,,,,,,,,,42,,,CHECKED,,2025/03/31 04:00:00+00,42,400465.71,134393.01,-76.99463291,38.87736854,74588,ABCALicenseePt_20523,{2187DAAF-8CBE-4566-9736-0FD33430EDE2},2025/02/28 21:50:13+00,2025/02/28 21:54:16+00,,20523
-8571692.8841835,4707913.92544489,ABRA-079164,"A & F, LLC",L Street Market,B,1100 4TH STREET NE,20002,Ward 6,ANC 6C,SMD 6C07,Safekeeping,Retail - Grocery,,,,,,,,,,,,,,,,,,2023/09/30 04:00:00+00,,399928.44,137336.22,-77.000825,38.9038822,74582,ABCALicenseePt_20524,{A08B1C54-B330-40F2-97E2-49D1FB2D35BC},2025/02/28 21:50:13+00,2025/02/28 21:54:16+00,,20524
-8570623.0400062,4707414.03478989,ABRA-079090,"LMW, LLC",Little Miss Whiskey's Golden Dollar,C,1104 H STREET NE,20002,Ward 6,ANC 6A,SMD 6A01,Active,Tavern,,CHECKED,,,CHECKED,,,CHECKED,,,,,145,,,CHECKED,,2025/09/30 04:00:00+00,145,400762.09,136948.32,-76.99121443,38.90038753,74492,ABCALicenseePt_20525,{FA9186D0-87D5-4B02-905C-87FA5C4EC0B1},2025/02/28 21:50:13+00,2025/02/28 21:54:16+00,,20525
-8569441.50893914,4707918.46347272,ABRA-076330,"Jvlhc, LLC",Jimmy Valentine's Lonely Hearts Club,C,1103 BLADENSBURG ROAD NE,20002,Ward 5,ANC 5D,SMD 5D06,Active,Tavern,,CHECKED,,,,,,CHECKED,,,,,49,,,CHECKED,,2025/09/30 04:00:00+00,49,401682.69,137339.92,-76.98060056,38.90391392,74450,ABCALicenseePt_20526,{6089ECFC-EB0B-4BC8-AC78-8D9ED8CA810B},2025/02/28 21:50:13+00,2025/02/28 21:54:16+00,,20526
-8570638.46393051,4704845.13948488,ABRA-111597,Emilie's LLC,Paraiso,C,1101 PENNSYLVANIA AVENUE SE,20003,Ward 6,ANC 6B,SMD 6B04,About to Expire,Restaurant,,,,CHECKED,,,,,,,,,150,,,CHECKED,,2025/03/31 04:00:00+00,150,400750.26,134954.45,-76.99135299,38.88242568,74406,ABCALicenseePt_20527,{E2C85211-A4C2-4C4A-B4A2-93D7F1E3F89F},2025/02/28 21:50:13+00,2025/02/28 21:54:16+00,,20527
-8569439.50552928,4707924.75151953,ABRA-126821,"1107 Safi, LLC",Eleven Zero Seven,B,1107 BLADENSBURG ROAD NE,20002,Ward 5,ANC 5D,SMD 5D06,Active,Retail - Class B,,,,,,CHECKED,,,,,,,,,,,,2026/09/30 04:00:00+00,,401684.25,137344.8,-76.98058256,38.90395788,74347,ABCALicenseePt_20528,{75ECB130-3D76-41F7-88A2-36E74687C636},2025/02/28 21:50:13+00,2025/02/28 21:54:16+00,,20528
-8570418.18218948,4702665.54785808,ABRA-123613,"GB License, LLC",goPuff,A,1110 U STREET SE,20020,Ward 8,ANC 8A,SMD 8A06,Active,Internet,,,,,,,,,,,,,,,,,,2027/03/31 04:00:00+00,,400922.15,133262.37,-76.9893741653379,38.8671825891974,74094,ABCALicenseePt_20529,{F987EA97-194A-4C80-8AE7-8DB7CD1A612D},2025/02/28 21:50:13+00,2025/02/28 21:54:16+00,,20529
-8570602.33980385,4707416.60988613,ABRA-096474,Lattice Partners LLC,Copycat Co.,C,1110 H STREET NE,20002,Ward 6,ANC 6A,SMD 6A01,Active,Tavern,,CHECKED,,,CHECKED,,,,,,,,99,,,CHECKED,,2025/09/30 04:00:00+00,99,400778.22,136950.32,-76.99102848,38.90040553,74073,ABCALicenseePt_20530,{B3B907B3-61E7-4761-8ACA-33D7C4C0CF59},2025/02/28 21:50:13+00,2025/02/28 21:54:16+00,,20530
-8570581.76799772,4707418.43758949,ABRA-119672,"Thompson Retail Food Group, LLC",Milk & Honey Café,C,1116 H STREET NE,20002,Ward 6,ANC 6A,SMD 6A01,About to Expire,Restaurant,,,,,,,,,,,,,27,,,,,2025/03/31 04:00:00+00,27,400794.25,136951.74,-76.99084368,38.90041831,73894,ABCALicenseePt_20531,{E8117E24-853E-47C1-9F50-34BB09C15852},2025/02/28 21:50:13+00,2025/02/28 21:54:16+00,,20531
-8570561.13261543,4707414.40230314,ABRA-000420,"Jumbo Liquors, Inc.",Jumbo Liquors,A,1122 H STREET NE,20002,Ward 6,ANC 6A,SMD 6A01,Active,Retail - Liquor Store,,,,,,,,,,,,,,,,,,2027/03/31 04:00:00+00,,400810.33,136948.61,-76.99065831,38.9003901,73532,ABCALicenseePt_20532,{5062A791-C467-45A0-A06D-23469CDDEAFD},2025/02/28 21:50:13+00,2025/02/28 21:54:16+00,,20532
-8570539.22631287,4707414.69639803,ABRA-121081,Hakuna Matata DC LLC,Hakuna Matata Kitchen and Bar,C,1128 H STREET NE,20002,Ward 6,ANC 6A,SMD 6A01,About to Expire,Restaurant,,,,CHECKED,,,,,,,,,38,,,,,2025/03/31 04:00:00+00,40,400827.4,136948.84,-76.99046152,38.90039216,73285,ABCALicenseePt_20533,{AE441F2A-836F-4AF6-A9E5-0816C27F44EA},2025/02/28 21:50:13+00,2025/02/28 21:54:16+00,,20533
-8570527.30294272,4707793.34496135,ABRA-094621,Bodega Market LLC,Bodega Market,A,1136 FLORIDA AVENUE NE,20002,Ward 5,ANC 5D,SMD 5D03,Active,Retail - Liquor Store,,,,,,,,,,,,,,,,,,2027/03/31 04:00:00+00,,400836.66,137242.69,-76.99035441,38.90303925,73050,ABCALicenseePt_20534,{1804A16C-548C-4581-86D2-00C1790DBFCF},2025/02/28 21:50:13+00,2025/02/28 21:54:16+00,,20534
-8571851.18017997,4708058.97094397,ABRA-109096,VBR Brewing Corporation,Red Bear Brewing Company,C,1140 3RD STREET NE,20002,Ward 6,ANC 6C,SMD 6C07,Active,Tavern,CHECKED,CHECKED,,,CHECKED,,,,,,,,322,,,CHECKED,,2025/09/30 04:00:00+00,322,399805.1,137448.78,-77.0022469989999,38.9048958255049,72925,ABCALicenseePt_20535,{AA09D962-5F7D-43FA-9E07-430BDA619659},2025/02/28 21:50:13+00,2025/02/28 21:54:16+00,,20535
-8571799.9741649,4708145.25971033,ABRA-103150,"Noma Spirits and Wines, Inc.",Oasis Market,A,1179 3RD STREET NE,20002,Ward 6,ANC 6C,SMD 6C07,Active,Retail - Liquor Store,,,,,,,,,,,,,,,,,,2027/03/31 04:00:00+00,,399845,137515.74,-77.00178701,38.90549937,72474,ABCALicenseePt_20536,{07BE5582-9C2B-4F0C-A580-8185CDFC0EE7},2025/02/28 21:50:13+00,2025/02/28 21:54:16+00,,20536
-8570490.88391202,4707412.26872381,ABRA-087558,"Hoost, LLC",Nomad Hookah Bar,C,1200 H STREET NE,20002,Ward 6,ANC 6A,SMD 6A01,Active,Tavern,,,,CHECKED,,,,,,,,,32,,,,,2025/09/30 04:00:00+00,32,400865.07,136946.96,-76.99002725,38.90037518,72285,ABCALicenseePt_20537,{1E180AFD-E32E-4CCE-B07B-F98783B4E750},2025/02/28 21:50:13+00,2025/02/28 21:54:16+00,,20537
-8570472.81420394,4707417.39518853,ABRA-083930,"Queen Vic, LLC",The Queen Vic,C,1206 H STREET NE,20002,Ward 6,ANC 6A,SMD 6A01,Active,Tavern,,,,,CHECKED,,,,,,,,120,,,CHECKED,CHECKED,2025/09/30 04:00:00+00,120,400879.15,136950.94,-76.98986493,38.90041102,72043,ABCALicenseePt_20538,{B60C8582-DBEF-4158-B2FC-0705162559AF},2025/02/28 21:50:13+00,2025/02/28 21:54:16+00,,20538
-8570465.62768315,4707416.73722032,ABRA-104866,"Naomi's Ladder II, LLC",Smokin' Pig,C,1208 H STREET NE,20002,Ward 6,ANC 6A,SMD 6A01,Safekeeping,Tavern,,CHECKED,,,,,,,CHECKED,,,,113,,,,,2025/09/30 04:00:00+00,99,400884.75,136950.43,-76.98980037,38.90040609,71906,ABCALicenseePt_20539,{9A686E1F-6249-4598-A875-5E73ABEE08E2},2025/02/28 21:50:13+00,2025/02/28 21:54:16+00,,20539
-8570465.62768315,4707416.73722032,ABRA-127999,Elite Group (The LLC),Smokin' Pig,C,1208 H STREET NE,20002,Ward 6,ANC 6A,SMD 6A01,Active,Tavern,,CHECKED,,,,,,,CHECKED,,,,0,,,,,2025/09/30 04:00:00+00,,400884.75,136950.43,-76.98980037,38.90040609,71906,ABCALicenseePt_20540,{04E6B287-FACE-4D3F-9E65-C4062D66A3F1},2025/02/28 21:50:13+00,2025/02/28 21:54:16+00,,20540
-8570424.63889016,4707412.77666696,ABRA-114106,"The McKenzie Group, LLC",Ocean Lounge,C,1220 H STREET NE,20002,Ward 6,ANC 6A,SMD 6A01,Active,Tavern,,CHECKED,,,CHECKED,,,CHECKED,CHECKED,,,,380,,,,,2025/09/30 04:00:00+00,310,400916.69,136947.36,-76.98943216,38.90037873,71113,ABCALicenseePt_20541,{52E97155-7212-4046-B415-A5D69E278EC0},2025/02/28 21:50:13+00,2025/02/28 21:54:16+00,,20541
-8570417.8116679,4707412.44084633,ABRA-072783,"Bee Hive, LLC",Sticky Rice /Sing Sing Karaoke Palace,C,1222 H STREET NE,20002,Ward 6,ANC 6A,SMD 6A01,About to Expire,Restaurant,,CHECKED,,,CHECKED,,,,,,,,199,,,CHECKED,,2025/03/31 04:00:00+00,199,400922.01,136947.1,-76.98937083,38.90037639,70988,ABCALicenseePt_20542,{BDEA345B-8BB6-470B-B20B-97836838ED05},2025/02/28 21:50:13+00,2025/02/28 21:54:16+00,,20542
-8572289.0545851,4708303.09906692,ABRA-118744,Washington DC Noma Operations LLC,citizenM,C,1222 1ST STREET NE,20002,Ward 6,ANC 6E,SMD 6E05,About to Expire,Hotel,,CHECKED,,,,,,,,,,,30,,,,,2025/03/31 04:00:00+00,,399463.93,137638.24,-77.00618049,38.90660241,70970,ABCALicenseePt_20543,{9BE5EC9A-7807-4503-BF98-D9007B6981A7},2025/02/28 21:50:13+00,2025/02/28 21:54:16+00,,20543
-8572291.52959321,4703915.16133485,ABRA-118427,"Millstone Point OpCo, LLC",Residence Inn by Marriott Washington Capitol Hill Navy Yard,D,1233 1ST STREET SE,20003,Ward 8,ANC 8F,SMD 8F02,Active,Tavern,,,,,,,,,,,,,186,,,,,2025/09/30 04:00:00+00,186,399461.77,134232.5,-77.00620273,38.87592223,70461,ABCALicenseePt_20544,{6697E5C9-338D-4501-A924-6479CA48970F},2025/02/28 21:50:13+00,2025/02/28 21:54:16+00,,20544
-8570380.44070143,4707418.26069391,ABRA-073166,"The Pug, LLC",The Pug/Toki Underground,C,1234 H STREET NE,20002,Ward 6,ANC 6A,SMD 6A01,Active,Tavern,,,,,,,,,,,,,99,,,CHECKED,,2025/09/30 04:00:00+00,99,400951.13,136951.62,-76.98903513,38.90041707,70292,ABCALicenseePt_20545,{21B3F751-F129-41EF-875A-DC640A06F710},2025/02/28 21:50:13+00,2025/02/28 21:54:16+00,,20545
-8570368.7241989,4707416.49394934,ABRA-072792,Granville Moore's Brickyard LLC,Granville Moore's Brickyard,C,1238 H STREET NE,20002,Ward 6,ANC 6A,SMD 6A01,Active,Restaurant,,CHECKED,,,CHECKED,,,,,,,,109,,,CHECKED,CHECKED,2028/03/31 04:00:00+00,109,400960.26,136950.25,-76.98892987,38.90040439,70241,ABCALicenseePt_20546,{A6EAB7B7-1C09-452E-B3D7-B25B85DE39DF},2025/02/28 21:50:13+00,2025/02/28 21:54:16+00,,20546
-8570342.62913836,4707354.25355163,ABRA-121843,"Bronze DC, LLC",Bronze DC,C,1245 H STREET NE,20002,Ward 6,ANC 6A,SMD 6A02,Safekeeping,Tavern,,CHECKED,,,CHECKED,,,,CHECKED,,,,174,,,,,2025/09/30 04:00:00+00,174,400980.6,136901.95,-76.98869546,38.89996926,69878,ABCALicenseePt_20547,{3D640652-0F28-4200-A9C3-AE1B578A1D71},2025/02/28 21:50:13+00,2025/02/28 21:54:16+00,,20547
-8570334.69780099,4707358.01513152,ABRA-092192,Fernando Postigo,Sol Mexican Grill,C,1251 H STREET NE,20002,Ward 6,ANC 6A,SMD 6A02,Active,Tavern,,CHECKED,,,CHECKED,,,,,,,,59,,,CHECKED,,2025/09/30 04:00:00+00,59,400986.78,136904.87,-76.98862421,38.89999589,69654,ABCALicenseePt_20548,{183E3C4E-F037-4CB6-9CEC-3D8D2068E9DF},2025/02/28 21:50:13+00,2025/02/28 21:54:16+00,,20548
-8570329.30085697,4707414.44026641,ABRA-124137,"Hiraya Kapamilya, LLC",Hiraya Kapamilya,C,1250 H STREET NE,20002,Ward 6,ANC 6A,SMD 6A01,Active,Tavern,,,,,,,,,,,,,200,,,,,2025/09/30 04:00:00+00,97,400990.98,136948.66,-76.98857573,38.90039036,69629,ABCALicenseePt_20549,{88F0F7DC-B2B5-4CA7-A3F4-13A5014D1F4E},2025/02/28 21:50:13+00,2025/02/28 21:54:16+00,,20549
-8571538.91306731,4708523.42271759,ABRA-118327,Union Spirits LLC,Amity Wine and Spirits,A,1261 4TH STREET NE,20002,Ward 5,ANC 5D,SMD 5D01,Active,Retail - Liquor Store,,,,,,,,,,,,,,,,,,2027/03/31 04:00:00+00,,400048.41,137809.19,-76.9994418564749,38.9081425444413,69436,ABCALicenseePt_20550,{FE4AAD13-7131-4E98-AB4C-4D5AFD3C4099},2025/02/28 21:50:13+00,2025/02/28 21:54:16+00,,20550
-8571542.5709674,4708516.27047247,ABRA-126443,"Ramen Union Market, LLC",Jinya Ramen Bar,C,1259 4TH STREET NE,20002,Ward 5,ANC 5D,SMD 5D01,Active,Tavern,,,,,CHECKED,,,,,,,,145,,,CHECKED,,2025/09/30 04:00:00+00,145,400045.56,137803.64,-76.99947472,38.90809288,69353,ABCALicenseePt_20551,{FC244E4F-985D-48E9-A067-4BB1DAEB8D90},2025/02/28 21:50:13+00,2025/02/28 21:54:16+00,,20551
-8571482.64500093,4708627.58813704,ABRA-123745,"Forty Winters, LP",Minetta Tavern DC,C,1287 4TH STREET NE,20002,Ward 5,ANC 5D,SMD 5D01,About to Expire,Restaurant,,CHECKED,,,,,,,,,,,243,,,CHECKED,,2025/03/31 04:00:00+00,243,400092.25,137890.02,-76.99893639,38.90887102,69063,ABCALicenseePt_20552,{5DF28B8C-86C5-493D-90F6-73A69719BEBE},2025/02/28 21:50:13+00,2025/02/28 21:54:16+00,,20552
-8571492.28405202,4708611.36339605,ABRA-130365,"Opa Union Market DC, LLC",Greco,C,1285 4TH STREET NE,20002,Ward 5,ANC 5D,SMD 5D01,405.1 New Const,Tavern,,CHECKED,,,,,,,,,,,114,,,,,2025/09/30 04:00:00+00,,400084.74,137877.43,-76.99902298,38.9087576,69057,ABCALicenseePt_20553,{35C0CF72-14CB-49E2-B2D6-CD4FDB9D0824},2025/02/28 21:50:13+00,2025/02/28 21:54:16+00,,20553
-8572645.05743969,4703709.63928783,ABRA-024522,"R S Liquors, Inc",Cap Liquors,A,1301 SOUTH CAPITOL STREET SW,20003,Ward 6,ANC 6D,SMD 6D08,Active,Retail - Liquor Store,,,,,,,,,,,,,,,,,,2027/03/31 04:00:00+00,,399186.18,134072.97,-77.00937852,38.87448524,68830,ABCALicenseePt_20554,{CC3CF55B-A568-46C6-A9E5-9859F300DE8E},2025/02/28 21:50:13+00,2025/02/28 21:54:16+00,,20554
-8570273.40786122,4707349.68324281,ABRA-130290,"NaMaBu, LLC",Alero H Street,C,1301 H STREET NE,20002,Ward 6,ANC 6A,SMD 6A06,About to Expire,Restaurant,,,,CHECKED,,,,,,,,,200,,,CHECKED,,2025/03/31 04:00:00+00,,401034.54,136898.41,-76.98807363,38.89993731,68809,ABCALicenseePt_20555,{6E376D2B-B8B8-48DD-A0F4-556B035F9357},2025/02/28 21:50:13+00,2025/02/28 21:54:16+00,,20555
-8571464.0984131,4708658.19481689,ABRA-115024,Last Call LLC,Last Call Bar,C,1301 4TH STREET NE,20002,Ward 5,ANC 5D,SMD 5D01,Active,Tavern,,,,,,,,,,,,,27,,,CHECKED,,2025/09/30 04:00:00+00,27,400106.7,137913.77,-76.99876979,38.90908497,68797,ABCALicenseePt_20556,{D0483D8C-D84A-4B1F-88F1-0BCD3ED4FA65},2025/02/28 21:50:13+00,2025/02/28 21:54:16+00,,20556
-8570263.37099501,4707360.11918319,ABRA-122919,"Noble Convenience, LLC",Noble Liquor and Tobacco,A,1305 H STREET NE,20002,Ward 6,ANC 6A,SMD 6A06,Active,Retail - Liquor Store,,,,,,,,,,,,,,,,,,2027/03/31 04:00:00+00,,401042.36,136906.51,-76.98798347,38.90001027,68722,ABCALicenseePt_20557,{D8F4BBBE-F33F-4F2B-9F62-61D1D7FBCAFB},2025/02/28 21:50:13+00,2025/02/28 21:54:16+00,,20557
-8572120.61935088,4708097.36219868,ABRA-098173,Proust Partners Limited Company,Wunder Garten,C,131 M STREET NE,20002,Ward 6,ANC 6E,SMD 6E06,Active,Tavern,,CHECKED,,,CHECKED,,,CHECKED,CHECKED,,,,600,,,CHECKED,,2025/09/30 04:00:00+00,300,399595.16,137478.58,-77.00466741,38.9051642,68490,ABCALicenseePt_20558,{2F9945EF-FB14-4EA8-ADB9-47C2DF73C31B},2025/02/28 21:50:13+00,2025/02/28 21:54:16+00,,20558
-8570206.65279421,4707423.0188049,ABRA-107322,"PBC, LLC",Please Bring Chips,Caterer,1320 H STREET NE,20002,Ward 6,ANC 6A,SMD 6A01,About to Expire,Caterer,,,,,,,,,,,,,,,,,,2025/03/31 04:00:00+00,,401086.55,136955.33,-76.98747396,38.90045,67743,ABCALicenseePt_20559,{03A4B241-6D94-4959-B6E9-97800BBEB29C},2025/02/28 21:50:13+00,2025/02/28 21:54:16+00,,20559
-8571428.40379589,4708725.65867388,ABRA-120260,"FRENCH BREAD, LLC",Pastis,C,1323 4TH STREET NE,20002,Ward 5,ANC 5D,SMD 5D01,Active,Restaurant,,CHECKED,,,,,,,,,,,281,,,CHECKED,CHECKED,2028/03/31 04:00:00+00,281,400134.51,137966.12,-76.99844914,38.90955655,67673,ABCALicenseePt_20560,{46E24A52-DD16-4BBA-87B9-2F20BDD67C34},2025/02/28 21:50:13+00,2025/02/28 21:54:16+00,,20560
-8571428.40379589,4708725.65867388,ABRA-120263,"FRENCH BREAD, LLC",Pastis,Caterer,1323 4TH STREET NE,20002,Ward 5,ANC 5D,SMD 5D01,Active,Caterer,,,,,,,,,,,,,,,,,,2024/03/31 04:00:00+00,,400134.51,137966.12,-76.99844914,38.90955655,67673,ABCALicenseePt_20561,{C5700AEA-ABEB-4D27-A1FD-09A9DBE691D8},2025/02/28 21:50:13+00,2025/02/28 21:54:16+00,,20561
-8570192.78023777,4707421.97315177,ABRA-105439,"1291 Hospitality Group, LLC",Stable DC,C,1324 H STREET NE,20002,Ward 6,ANC 6A,SMD 6A01,About to Expire,Restaurant,,CHECKED,,,CHECKED,,,,CHECKED,,,,33,,,CHECKED,CHECKED,2025/03/31 04:00:00+00,33,401097.36,136954.52,-76.98734934,38.90044269,67520,ABCALicenseePt_20562,{385940BD-1784-4317-AFF5-255324EF7CB1},2025/02/28 21:50:13+00,2025/02/28 21:54:16+00,,20562
-8570125.91117889,4702239.82057607,ABRA-111233,"Elharia, Inc.",Nam's Market,B,1327 W STREET SE,20020,Ward 8,ANC 8A,SMD 8A06,Active,Beer and Wine,,,,,,,,,,,,,,,,,,2026/09/30 04:00:00+00,,401150.05,132931.85,-76.98674865,38.86420519,67260,ABCALicenseePt_20563,{4049EC10-B134-4D7C-B7A9-C1621ECAF1B7},2025/02/28 21:50:13+00,2025/02/28 21:54:16+00,,20563
-8570107.95282198,4707421.3038319,ABRA-111354,"O2, LLC",O2,C,1350 H STREET NE,20002,Ward 6,ANC 6A,SMD 6A01,405.1 New Const,Tavern,,CHECKED,,,CHECKED,,,CHECKED,CHECKED,,,,399,,,,,2022/09/30 04:00:00+00,399,401163.46,136954.01,-76.98658733,38.90043835,66320,ABCALicenseePt_20564,{63391E98-B081-43F0-B577-B95403883092},2025/02/28 21:50:13+00,2025/02/28 21:54:16+00,,20564
-8569992.69863361,4709452.08826829,ABRA-093795,"Ivy City Tavern, Inc.",Ivy City Tavern,C,1356 OKIE STREET NE,20002,Ward 5,ANC 5D,SMD 5D02,Active,Tavern,,CHECKED,,,CHECKED,,,,,,,,530,CHECKED,CHECKED,CHECKED,,2025/09/30 04:00:00+00,530,401253.02,138529.88,-76.98555198,38.91463421,66093,ABCALicenseePt_20565,{0D8DE551-412A-4396-8397-16C4B02960D8},2025/02/28 21:50:13+00,2025/02/28 21:54:16+00,,20565
-8569992.69863361,4709452.08826829,ABRA-110165,"Ivy City Tavern, Inc.",Ivy City Tavern,Caterer,1356 OKIE STREET NE,20002,Ward 5,ANC 5D,SMD 5D02,About to Expire,Caterer,,,,,,,,,,,,,,,,,,2025/03/31 04:00:00+00,,401253.02,138529.88,-76.98555198,38.91463421,66093,ABCALicenseePt_20566,{9F6D6014-942A-47D5-90EC-AC1416024E50},2025/02/28 21:50:13+00,2025/02/28 21:54:16+00,,20566
-8569992.69863361,4709452.08826829,ABRA-112220,"Ivy City Smokehouse, Inc.",Ivy City Smokehouse,C,1356 OKIE STREET NE,20002,Ward 5,ANC 5D,SMD 5D02,About to Expire,Restaurant,,,,,CHECKED,,,,,,,,22,,CHECKED,CHECKED,,2025/03/31 04:00:00+00,20,401253.02,138529.88,-76.98555198,38.91463421,66093,ABCALicenseePt_20567,{63B81FCB-A43C-45BE-851E-7E423FDCCF68},2025/02/28 21:50:13+00,2025/02/28 21:54:16+00,,20567
-8570093.83732042,4707414.34352343,ABRA-094849,"Gallery O, LLC",Gallery O on H,C,1354 H STREET NE,20002,Ward 6,ANC 6A,SMD 6A01,About to Expire,Multipurpose,,CHECKED,,,CHECKED,,,CHECKED,CHECKED,,,,500,,,,,2025/03/31 04:00:00+00,500,401174.46,136948.61,-76.98646052,38.90038969,66010,ABCALicenseePt_20568,{24D24919-957B-4573-A824-88F48E566A5A},2025/02/28 21:50:13+00,2025/02/28 21:54:16+00,,20568
-8569964.08625124,4709461.23426231,ABRA-119720,"Bite Club, LLC",Bite Club,Caterer,1360 OKIE STREET NE,20002,Ward 5,ANC 5D,SMD 5D02,About to Expire,Caterer,,,,,,,,,,,,,,,,,,2024/03/31 04:00:00+00,,401275.31,138536.98,-76.98529495,38.91469813,65789,ABCALicenseePt_20569,{A59C0AAB-B748-498D-B5DB-894CAAB8B381},2025/02/28 21:50:13+00,2025/02/28 21:54:16+00,,20569
-8570074.40668658,4707422.16216363,ABRA-122943,"RMC Group Lounge, LLC",Cru Lounge,C,1360 H STREET NE,20002,Ward 6,ANC 6A,SMD 6A01,About to Expire,Restaurant,,CHECKED,,,,,,CHECKED,,,,,37,,,,,2025/03/31 04:00:00+00,37,401189.6,136954.68,-76.98628598,38.90044435,65777,ABCALicenseePt_20570,{2E456D27-3683-439D-A676-9A5B787DA36E},2025/02/28 21:50:13+00,2025/02/28 21:54:16+00,,20570
-8570074.40668658,4707422.16216363,ABRA-128599,"The Upper Room DC, LLC",The Upper Room DC,C,1360 H STREET NE,20002,Ward 6,ANC 6A,SMD 6A01,About to Expire,Restaurant,,CHECKED,,,,,,CHECKED,,,,,37,,,,,2025/03/31 04:00:00+00,37,401189.6,136954.68,-76.98628598,38.90044435,65777,ABCALicenseePt_20571,{88E6E584-5B0B-4527-BFAF-B7C532028C3D},2025/02/28 21:50:13+00,2025/02/28 21:54:16+00,,20571
-8569962.67352675,4709546.11571717,ABRA-101343,"Republic Restoratives, LLC",Republic Restoratives,A,1369 NEW YORK AVENUE NE,20002,Ward 5,ANC 5D,SMD 5D02,Active,Manufacturer,,CHECKED,CHECKED,,,CHECKED,,CHECKED,CHECKED,,,,,,,,,2027/03/31 04:00:00+00,,401276.4,138602.84,-76.98528226,38.91529142,65754,ABCALicenseePt_20572,{2687BD59-3150-4289-8184-B7B6EB65F4BF},2025/02/28 21:50:13+00,2025/02/28 21:54:16+00,,20572
-8570045.73785073,4707418.52406359,ABRA-118781,"H Street Spirits, LLC",H Street Spirits,A,1368 H STREET NE,20002,Ward 6,ANC 6A,SMD 6A01,Active,Retail - Liquor Store,,,,,,CHECKED,,,,,,,,,,,,2027/03/31 04:00:00+00,,401211.94,136951.86,-76.98602844,38.90041891,65732,ABCALicenseePt_20573,{91630D4E-C9FF-4CDB-A55E-8F6A2E346387},2025/02/28 21:50:13+00,2025/02/28 21:54:16+00,,20573
-8572181.21710332,4709819.62084477,ABRA-116836,"Yang Market DC, LLC",Yang's Market,B,138 U STREET NE,20002,Ward 5,ANC 5F,SMD 5F05,Active,Retail - Grocery,,,,,,,,,,,,,,,,,,2026/09/30 04:00:00+00,,399548.02,138814.96,-77.00521177,38.91720308,65513,ABCALicenseePt_20574,{0379EB6D-60A6-4245-AEAB-FA008F246B1F},2025/02/28 21:50:13+00,2025/02/28 21:54:16+00,,20574
-8569929.36238155,4704465.69435081,ABRA-116333,"1401 Potomac Hall, LLC",The Roost,C,1401 PENNSYLVANIA AVENUE SE,20003,Ward 6,ANC 6B,SMD 6B09,About to Expire,Restaurant,,CHECKED,,CHECKED,,,,,,,,,480,,,CHECKED,,2025/03/31 04:00:00+00,480,401303,134659.97,-76.98498302,38.87977225,65127,ABCALicenseePt_20575,{B1D56811-4D13-4C23-93AD-B5A3DC7D79FB},2025/02/28 21:50:13+00,2025/02/28 21:54:16+00,,20575
-8569860.13650001,4704528.85566479,ABRA-071352,"1420 Pennsy, LLC",Trusty's Bar,C,1420 PENNSYLVANIA AVENUE SE,20003,Ward 6,ANC 6B,SMD 6B09,Active,Tavern,,CHECKED,,CHECKED,CHECKED,,,,,,,,96,CHECKED,,CHECKED,,2025/09/30 04:00:00+00,96,401356.95,134709.01,-76.98436116,38.88021427,64202,ABCALicenseePt_20576,{1D9A8846-B818-4E02-8AB1-1D8336FA79C9},2025/02/28 21:50:13+00,2025/02/28 21:54:16+00,,20576
-8569833.74892569,4704512.37506762,ABRA-122788,"Hamburger Train, LLC",Hill East Burger,C,1432 PENNSYLVANIA AVENUE SE,20003,Ward 6,ANC 6B,SMD 6B09,Active,Tavern,,CHECKED,,CHECKED,,,,,,,,,63,,,CHECKED,,2025/09/30 04:00:00+00,63,401377.52,134696.22,-76.98412411,38.88009902,63678,ABCALicenseePt_20577,{3AB058C1-20B9-4AC2-AFE0-A037313A6C2B},2025/02/28 21:50:13+00,2025/02/28 21:54:16+00,,20577
-8569802.51669439,4707308.36413271,ABRA-113870,"Daruwalla, LLC",Daru,C,1451 MARYLAND AVENUE NE,20002,Ward 6,ANC 6A,SMD 6A06,Active,Tavern,,,,,,,,,,,,,66,,,CHECKED,,2025/09/30 04:00:00+00,66,401401.48,136866.4,-76.9838435478405,38.8996484442483,63093,ABCALicenseePt_20578,{54D9F883-D739-48B2-9558-92DDF25A92A6},2025/02/28 21:50:13+00,2025/02/28 21:54:16+00,,20578
-8569804.18360717,4704400.90296855,ABRA-094605,"RMG, Inc.",World Wine and Spirits,A,1453 PENNSYLVANIA AVENUE SE,20003,Ward 6,ANC 6B,SMD 6B09,Active,Retail - Liquor Store,,,,,,CHECKED,,,,,,,,,,,,2027/03/31 04:00:00+00,,401400.58,134609.69,-76.98385852,38.87931949,62886,ABCALicenseePt_20579,{48F1B27E-DCE0-4438-B19A-32F9D2CEF4E7},2025/02/28 21:50:13+00,2025/02/28 21:54:16+00,,20579
-8572472.14681471,4707677.01678609,ABRA-100316,"Next Level DC, INC",Next Level DC,C,15 K STREET NE,20002,Ward 6,ANC 6E,SMD 6E07,Active,Tavern,,CHECKED,,CHECKED,CHECKED,,,CHECKED,CHECKED,,,,320,,,,,2025/09/30 04:00:00+00,320,399321.23,137152.4,-77.00782524,38.90222602,62711,ABCALicenseePt_20580,{5BFBFA66-18FB-4866-9FBA-7294727B862E},2025/02/28 21:50:13+00,2025/02/28 21:54:16+00,,20580
-8569749.41350396,4705610.60470321,ABRA-110053,"Kaladi, LLC",South East Market & Liquors,A,1500 INDEPENDENCE AVENUE SE,20003,Ward 7,ANC 7D,SMD 7D09,Active,Retail - Liquor Store,,,,,,CHECKED,,,,,,,,,,,,2027/03/31 04:00:00+00,,401443.1,135548.72,-76.98336651,38.88777856,62552,ABCALicenseePt_20581,{6E583C65-AB2F-4FE9-8BF0-45D95FD484AB},2025/02/28 21:50:13+00,2025/02/28 21:54:16+00,,20581
-8569760.20869093,4705942.06127614,ABRA-118000,Capitol Square Bar and Grill Limited Liability Company,Ember & Oak by DC Capitol Square Bar and Grill,C,1500 EAST CAPITOL STREET NE,20003,Ward 7,ANC 7D,SMD 7D08,About to Expire,Restaurant,,CHECKED,,CHECKED,,,,,,,,,80,,,CHECKED,,2025/03/31 04:00:00+00,80,401434.64,135805.99,-76.98346349,38.89009616,62543,ABCALicenseePt_20582,{56996DA4-9832-421C-9467-D0C11B2E86D3},2025/02/28 21:50:13+00,2025/02/28 21:54:16+00,,20582
-8569760.20869093,4705942.06127614,ABRA-118149,Capitol Square Bar and Grill Limited Liability Company,DC Capitol Square Bar & Grill,Caterer,1500 EAST CAPITOL STREET NE,20003,Ward 7,ANC 7D,SMD 7D08,About to Expire,Caterer,,,,,,,,,,,,,,,,,,2024/03/31 04:00:00+00,,401434.64,135805.99,-76.98346349,38.89009616,62543,ABCALicenseePt_20583,{A9736056-BD4F-4FB9-A8A5-4F61C1FCB7EB},2025/02/28 21:50:13+00,2025/02/28 21:54:16+00,,20583
-8569748.12159167,4705941.89158243,ABRA-086607,The Bodega Incorporated,The Cupboard,B,1504 EAST CAPITOL STREET NE,20003,Ward 7,ANC 7D,SMD 7D08,Active,Retail - Class B,,,,,,,,,,,,,,,,,,2026/09/30 04:00:00+00,,401444.06,135805.86,-76.98335491,38.89009498,62482,ABCALicenseePt_20584,{42278E80-D763-43EC-B4A6-96CEC1BF5E37},2025/02/28 21:50:13+00,2025/02/28 21:54:16+00,,20584
-8569614.20818181,4711046.5358171,ABRA-117743,"DC Daru, LLC",Good Ole Reliable Liquors,A,1513 RHODE ISLAND AVENUE NE,20018,Ward 5,ANC 5C,SMD 5C07,Active,Retail - Liquor Store,,,,,,CHECKED,,,,,,,,,,,,2027/03/31 04:00:00+00,,401547.65,139766.98,-76.98215194,38.92577794,62059,ABCALicenseePt_20585,{87535E2E-11E3-4ADF-89AD-1B6F0E23A43F},2025/02/28 21:50:13+00,2025/02/28 21:54:16+00,,20585
-8569534.83613385,4707286.75570261,ABRA-025169,Wen De Zhang & Yang You Feng,China House,B,1601 BENNING ROAD NE,20002,Ward 7,ANC 7D,SMD 7D06,Active,Retail - Grocery,,,,,,,,,,,,,,,,,,2026/09/30 04:00:00+00,,401610.07,136849.67,-76.98143893,38.89949771,60353,ABCALicenseePt_20586,{F42E25A1-ABE2-466E-B668-1845938EB14A},2025/02/28 21:50:13+00,2025/02/28 21:54:16+00,,20586
-8564355.42777683,4709066.5429431,ABRA-087818,"Asmara, Inc.",Kenilworth Market,A,1612 KENILWORTH AVENUE NE,20019,Ward 7,ANC 7D,SMD 7D01,Active,Retail - Liquor Store,,,,,,,,,,,,,,,,,,2027/03/31 04:00:00+00,,405645.08,138232.64,-76.93491153,38.91193933,59977,ABCALicenseePt_20587,{EE26A34E-0C9A-493D-A650-A95E389B5A1E},2025/02/28 21:50:13+00,2025/02/28 21:54:16+00,,20587
-8569518.25877529,4711109.05964558,ABRA-117177,"Nana Baba, Inc.",New Neighborhood Market,B,1611 RHODE ISLAND AVENUE NE,20018,Ward 5,ANC 5C,SMD 5C07,Active,Retail - Class B,,,,,,,,,,,,,,,,,,2026/09/30 04:00:00+00,,401622.38,139815.5,-76.981290014681,38.9262145512509,59933,ABCALicenseePt_20588,{B3922AE0-E19B-4AFB-AAE7-E5948C115B8F},2025/02/28 21:50:13+00,2025/02/28 21:54:16+00,,20588
-8570111.73533583,4708411.32622563,ABRA-112577,"Jabbo's Compact Market, Inc.",Compact Supermarket,B,1613 MONTELLO AVENUE NE,20002,Ward 5,ANC 5D,SMD 5D04,Active,Retail - Class B,,,,,,,,,,,,,,,,,,2026/09/30 04:00:00+00,,401160.4,137722.29,-76.9866213,38.90735929,59807,ABCALicenseePt_20589,{48BE373A-47F8-422F-9F93-16BEE06F9CA5},2025/02/28 21:50:13+00,2025/02/28 21:54:16+00,,20589
-8572575.87884896,4709139.48180952,ABRA-118877,Sewa's Conveniency Store LLC,Sewa's Conveniency Store,B,1633 NORTH CAPITOL STREET NE,20002,Ward 5,ANC 5F,SMD 5F07,Active,Beer and Wine,,,,,,,,,,,,,,,,,,2026/09/30 04:00:00+00,,399240.51,138287.26,-77.00875708,38.91244917,58903,ABCALicenseePt_20590,{94CF5B4D-53DD-442E-B703-07625DDBEF66},2025/02/28 21:50:13+00,2025/02/28 21:54:16+00,,20590
-8573905.18070363,4705362.75539048,ABRA-060306,J. J. Sun Corporation,Sun's Gallery,B,600 MARYLAND AVENUE SW,20024,Ward 6,ANC 6D,SMD 6D02,Active,Retail - Grocery,,,,,,,,,,,,,,,,,,2026/09/30 04:00:00+00,,398204.19,135356.41,-77.0206984,38.88604518,5831,ABCALicenseePt_20591,{F56BC96D-622B-4E44-8E79-EB8D7D0DF0BD},2025/02/28 21:50:13+00,2025/02/28 21:54:16+00,,20591
-8569324.5809341,4702506.71088147,ABRA-127260,Hope Convenience Inc,24HR Convenience & Deli,B,1736 GOOD HOPE ROAD SE,20020,Ward 8,ANC 8A,SMD 8A02,Safekeeping,Retail - Grocery,,,,,,CHECKED,,,,,,,,,,,,2026/09/30 04:00:00+00,,401774.74,133139.19,-76.97955018,38.86607196,56735,ABCALicenseePt_20592,{251FA638-4A74-483B-8909-9097D73BB1FA},2025/02/28 21:50:13+00,2025/02/28 21:54:16+00,,20592
-8569230.57390169,4706639.69363707,ABRA-094127,Bella Market LLC,Economy Market,B,1804 D STREET NE,20002,Ward 7,ANC 7D,SMD 7D07,Active,Retail - Grocery,,,,,,,,,,,,,,,,,,2026/09/30 04:00:00+00,,401847.28,136347.54,-76.9787057002026,38.8949735414683,56044,ABCALicenseePt_20593,{7038A2C1-4470-41DC-A2C7-F62802D58FAA},2025/02/28 21:50:13+00,2025/02/28 21:54:16+00,,20593
-8569014.13012328,4709890.51675197,ABRA-060477,Aqua NYA LLC,Aqua Restaurant,C,1818 NEW YORK AVENUE NE,20002,Ward 5,ANC 5C,SMD 5C04,Active,Nightclub,,,,,CHECKED,,,,,,,,145,,,,,2025/09/30 04:00:00+00,145,402015.31,138870.21,-76.97676135,38.91769826,55416,ABCALicenseePt_20594,{5AA2AF2F-4188-42C1-A179-02230FD5C6AD},2025/02/28 21:50:13+00,2025/02/28 21:54:16+00,,20594
-8571409.38381213,4705233.70998547,ABRA-000259,Mr. Henry's Inc.,Mr. Henry's,C,601 PENNSYLVANIA AVENUE SE,20003,Ward 6,ANC 6B,SMD 6B02,About to Expire,Restaurant,,CHECKED,,CHECKED,,,,,,,,,150,,,CHECKED,,2025/03/31 04:00:00+00,150,400149.38,135256.04,-76.99827828,38.88514316,5540,ABCALicenseePt_20595,{8D1B6048-DDCF-4E19-945F-815A0C17CDC7},2025/02/28 21:50:13+00,2025/02/28 21:54:16+00,,20595
-8569023.65956617,4707177.62836028,ABRA-076260,"Langston Bar & Grille, LLC",Langston Bar & Grille,C,1831 BENNING ROAD NE,20002,Ward 7,ANC 7D,SMD 7D06,Active,Tavern,,,,,,,,,,,,,40,,,CHECKED,,2025/09/30 04:00:00+00,40,402008.42,136765.07,-76.97684696,38.89873445,55096,ABCALicenseePt_20596,{75865325-1D8E-4F64-B4A9-54989E5A5C00},2025/02/28 21:50:13+00,2025/02/28 21:54:16+00,,20596
-8569023.65956617,4707177.62836028,ABRA-120993,"Langston Bar & Grille, LLC",Langston Bar & Grille,Caterer,1831 BENNING ROAD NE,20002,Ward 7,ANC 7D,SMD 7D06,About to Expire,Caterer,,,,,,,,,,,,,,,,,,2024/03/31 04:00:00+00,,402008.42,136765.07,-76.97684696,38.89873445,55096,ABCALicenseePt_20597,{092DEA80-6904-4BB4-A231-5F280EE339B8},2025/02/28 21:50:13+00,2025/02/28 21:54:16+00,,20597
-8568989.63612918,4707241.11852706,ABRA-108479,"Sunrise Grocery, Inc.",Food 7 Store,B,1830 BENNING ROAD NE,20002,Ward 5,ANC 5D,SMD 5D07,Active,Retail - Grocery,,,,,,CHECKED,,,,,,,,,,,,2026/09/30 04:00:00+00,,402034.92,136814.35,-76.97654132,38.89917832,55068,ABCALicenseePt_20598,{45749F77-6E18-4E93-947F-7ADA8E9FA39F},2025/02/28 21:50:13+00,2025/02/28 21:54:16+00,,20598
-8570956.95832619,4709676.49018148,ABRA-086435,"Capital Fresh, Inc.",MGM Roast Beef,D,1905 BRENTWOOD ROAD NE,20018,Ward 5,ANC 5C,SMD 5C05,About to Expire,Restaurant,,,,CHECKED,,,,,,,,,18,,,,,2025/03/31 04:00:00+00,18,400501.78,138703.91,-76.99421407,38.91620268,54412,ABCALicenseePt_20599,{49C239ED-2880-407B-83C4-0FB1FCC8E65C},2025/02/28 21:50:13+00,2025/02/28 21:54:16+00,,20599
-8568905.93522635,4711582.80888988,ABRA-130199,"EthioMeloti, Inc.",TBD,A,2006 RHODE ISLAND AVENUE NE,20018,Ward 5,ANC 5B,SMD 5B06,Safekeeping,Retail - Liquor Store,,,,,,,,,,,,,,,,,,2027/03/31 04:00:00+00,,402099.25,140183.13,-76.97578942,38.9295256,53027,ABCALicenseePt_20600,{23168791-858B-495E-BEE8-16A4CB1A3235},2025/02/28 21:50:13+00,2025/02/28 21:54:16+00,,20600
-8568748.47529095,4707115.6795952,ABRA-129441,"TAMZEE, Inc.",Silvermans Liquors,A,2033 BENNING ROAD NE,20002,Ward 7,ANC 7D,SMD 7D05,Active,Retail - Liquor Store,,,,,,,,,,,,,,,,,,2027/03/31 04:00:00+00,,402222.87,136717.05,-76.97437494,38.89830169,52300,ABCALicenseePt_20601,{7A188A4B-8EC3-48E6-8AF1-18B5F67FC752},2025/02/28 21:50:13+00,2025/02/28 21:54:16+00,,20601
-8569532.20987302,4709480.52611914,ABRA-091282,"Dad Strength Brewing, LLC/ Atlas Brew Works LLC",Dad Strength Brewing/ Atlas Brew Works,C,2052 WEST VIRGINIA AVENUE NE,20002,Ward 5,ANC 5D,SMD 5D02,Active,Tavern,CHECKED,CHECKED,,CHECKED,,,,CHECKED,CHECKED,,,,98,,,CHECKED,,2025/09/30 04:00:00+00,98,401611.77,138552.01,-76.98141534,38.91483298,52236,ABCALicenseePt_20602,{0C8D50CF-0A61-4A8D-9B8E-535FB8CDC2C5},2025/02/28 21:50:13+00,2025/02/28 21:54:16+00,,20602
-8569532.20987302,4709480.52611914,ABRA-117692,"Washington Area General Spirits Company, LLC",Bo & Ivy Distillers,A,2052 WEST VIRGINIA AVENUE NE,20002,Ward 5,ANC 5D,SMD 5D02,Active,Manufacturer,,CHECKED,CHECKED,,,CHECKED,,CHECKED,CHECKED,,,,,,,,,2027/03/31 04:00:00+00,,401611.77,138552.01,-76.98141534,38.91483298,52236,ABCALicenseePt_20603,{6810D500-A959-4671-9C84-6CF0FB4CF17D},2025/02/28 21:50:13+00,2025/02/28 21:54:16+00,,20603
-8569562.09859672,4709445.56663517,ABRA-108137,Ron R Hunt,Edge Wet,C,2046 WEST VIRGINIA AVENUE NE,20002,Ward 5,ANC 5D,SMD 5D02,Safekeeping,Nightclub,,,,,,,,,,,,,0,,,,,2022/09/30 04:00:00+00,0,401588.49,138524.88,-76.98168383,38.91458862,52181,ABCALicenseePt_20604,{76145250-E2FD-44C5-83FE-FD8D62E090BD},2025/02/28 21:50:13+00,2025/02/28 21:54:16+00,,20604
-8569604.83780428,4709399.654859,ABRA-116646,"The Experience, LLC",The Experience,C,2040 WEST VIRGINIA AVENUE NE,20002,Ward 5,ANC 5D,SMD 5D02,405.1 New Const,Tavern,,CHECKED,,,,,,CHECKED,CHECKED,,,,99,,,,,2022/09/30 04:00:00+00,99,401555.2,138489.25,-76.98206777,38.91426772,52163,ABCALicenseePt_20605,{B986A4B9-D5D6-4FE8-9AE4-EB7F7DB09D9F},2025/02/28 21:50:13+00,2025/02/28 21:54:16+00,,20605
-8568825.04930801,4700275.16950492,ABRA-127407,"Bair Investment, LLC",DT Market,A,2101 ALABAMA AVENUE SE,20020,Ward 8,ANC 8C,SMD 8C05,Active,Retail - Liquor Store,,,,,,,,,,,,,,,,,,2027/03/31 04:00:00+00,,402164.65,131406.46,-76.97506281,38.85046159,51905,ABCALicenseePt_20606,{E5FFBD12-373B-4F52-801B-371E79AF57C7},2025/02/28 21:50:13+00,2025/02/28 21:54:16+00,,20606
-8563336.08031867,4706984.71917949,ABRA-116889,ELU Star Inc.,Max Liquors,A,605 DIVISION AVENUE NE,20019,Ward 7,ANC 7C,SMD 7C06,Issued,Retail - Liquor Store,,,,,,,,,,,,,,,,,,2027/03/31 04:00:00+00,,406440.57,136617.72,-76.92575458,38.8973861,5181,ABCALicenseePt_20607,{7476E02E-82BA-4473-9CD5-4CB01B363A15},2025/02/28 21:50:13+00,2025/02/28 21:54:16+00,,20607
-8568512.8386237,4710170.59293909,ABRA-094244,"RCX, LLC",Stadium Club,C,2127 QUEENS CHAPEL ROAD NE,20018,Ward 5,ANC 5C,SMD 5C02,Safekeeping,Nightclub,,,,,CHECKED,,,,,,,,396,,,,,2025/09/30 04:00:00+00,396,402405.77,139087.62,-76.97225818,38.91965578,51442,ABCALicenseePt_20608,{627DF56D-AE9E-4A50-AA21-57F012ACAE1A},2025/02/28 21:50:13+00,2025/02/28 21:54:16+00,,20608
-8568446.96311407,4710204.79307381,ABRA-122954,"Republiq Hall, LLC",Republiq,C,2122 24TH PLACE NE,20018,Ward 5,ANC 5C,SMD 5C02,Active,Tavern,,CHECKED,,,CHECKED,,,CHECKED,CHECKED,,,,1066,,,,,2025/09/30 04:00:00+00,1066,402457.08,139114.17,-76.97166641,38.91989514,51384,ABCALicenseePt_20609,{92F74B7E-1D1C-400E-A294-A36ED690DE0F},2025/02/28 21:50:13+00,2025/02/28 21:54:16+00,,20609
-8572832.17757514,4703203.38387894,ABRA-116860,"Square 656 Owner, LLC",Cambria Hotel- Capitol Riverfront,C,69 Q STREET SW,20024,Ward 6,ANC 6D,SMD 6D08,About to Expire,Hotel,,CHECKED,,CHECKED,CHECKED,,,,CHECKED,,,,243,,,,CHECKED,2025/03/31 04:00:00+00,,399040.27,133679.95,-77.0110594478641,38.8709442795826,513,ABCALicenseePt_20610,{1C8ED8DE-D7D8-4E43-84CF-A0C31D461F60},2025/02/28 21:50:13+00,2025/02/28 21:54:16+00,,20610
-8572832.17757514,4703203.38387894,ABRA-117331,"Square 656 Owner, LLC",Cambria Hotel Washington DC Capitol Riverfront,B,69 Q STREET SW,20024,Ward 6,ANC 6D,SMD 6D08,Active,25 Percent,,,,,,,,,,,,,,,,,,2026/09/30 04:00:00+00,,399040.27,133679.95,-77.0110594478641,38.8709442795826,513,ABCALicenseePt_20611,{D3B5B8A9-AC37-4193-97AA-CCE87748D11E},2025/02/28 21:50:13+00,2025/02/28 21:54:16+00,,20611
-8569647.27787446,4702133.17837362,ABRA-106962,"DC Market, Inc.",DC Food Market,B,2200 16TH STREET SE,20020,Ward 8,ANC 8A,SMD 8A04,Active,Retail - Grocery,,,,,,,,,,,,,,,,,,2026/09/30 04:00:00+00,,401523.22,132849.11,-76.98244902,38.86345927,50746,ABCALicenseePt_20612,{366280C2-1E61-4945-8A2A-2DCE60D429D3},2025/02/28 21:50:13+00,2025/02/28 21:54:16+00,,20612
-8568696.73782737,4710527.55096184,ABRA-124358,"The Spice Suite, LLC",The Spice Suite,C,2201 CHANNING STREET NE,20018,Ward 5,ANC 5C,SMD 5C02,Active,Tavern,,CHECKED,,,,,,,,,,,39,,,,,2025/09/30 04:00:00+00,31,402262.43,139364.52,-76.97391017,38.9221509,50553,ABCALicenseePt_20613,{CF4BFC5B-A377-4ECD-BC84-5F22A6C80436},2025/02/28 21:50:13+00,2025/02/28 21:54:16+00,,20613
-8568657.25984483,4711742.54817723,ABRA-120010,"His and Hers Restaurant DC, LLC",His and Hers Restaurant DC,C,2214 RHODE ISLAND AVENUE NE,20018,Ward 5,ANC 5B,SMD 5B06,Active,Tavern,,CHECKED,,,,,,,,,,,91,,,,,2025/09/30 04:00:00+00,,402292.91,140307.1,-76.97355553,38.93064154,50250,ABCALicenseePt_20614,{334B1A5A-358A-4B85-9E44-744631CE6243},2025/02/28 21:50:13+00,2025/02/28 21:54:16+00,,20614
-8568657.25984483,4711742.54817723,ABRA-121770,"His and Hers Restaurant DC, LLC",His and Hers Restaurant DC,Caterer,2214 RHODE ISLAND AVENUE NE,20018,Ward 5,ANC 5B,SMD 5B06,About to Expire,Caterer,,,,,,,,,,,,,,,,,,2023/03/31 04:00:00+00,,402292.91,140307.1,-76.97355553,38.93064154,50250,ABCALicenseePt_20615,{8E25EBE9-6A37-4046-BE7D-062DA28BFAE5},2025/02/28 21:50:13+00,2025/02/28 21:54:16+00,,20615
-8568661.93503429,4711735.87199722,ABRA-120939,Eat & Smile Inc.,Eat & Smile Catering,Caterer,2212 RHODE ISLAND AVENUE NE,20018,Ward 5,ANC 5B,SMD 5B06,About to Expire,Caterer,,,,,,,,,,,,,,,,,,2024/03/31 04:00:00+00,,402289.27,140301.92,-76.97359753,38.93059522,50202,ABCALicenseePt_20616,{795FD260-79BE-48B0-B7AE-6B3A0F95E402},2025/02/28 21:50:13+00,2025/02/28 21:54:16+00,,20616
-8568661.93503429,4711735.87199722,ABRA-126461,"Emma's Torch, Ltd.",Emma's Torch Ltd.,D,2212 RHODE ISLAND AVENUE NE,20018,Ward 5,ANC 5B,SMD 5B06,About to Expire,Restaurant,,,,,,,,,,,,,35,,,CHECKED,,2025/03/31 04:00:00+00,35,402289.27,140301.92,-76.97359753,38.93059522,50202,ABCALicenseePt_20617,{569D129E-15D0-4F16-A38D-7A693736DBD0},2025/02/28 21:50:13+00,2025/02/28 21:54:16+00,,20617
-8568661.93503429,4711735.87199722,ABRA-126463,"Emma's Torch, Ltd.",Emma's Torch Ltd.,Caterer,2212 RHODE ISLAND AVENUE NE,20018,Ward 5,ANC 5B,SMD 5B06,About to Expire,Caterer,,,,,,,,,,,,,,,,,,2025/03/31 04:00:00+00,,402289.27,140301.92,-76.97359753,38.93059522,50202,ABCALicenseePt_20618,{3C38323B-1DE1-46EB-89D4-2EAD24023E87},2025/02/28 21:50:13+00,2025/02/28 21:54:16+00,,20618
-8571138.8184833,4705443.10125508,ABRA-060383,Harlou Inc.,Tunnicliffs Tavern,C,222 7TH STREET SE,20003,Ward 6,ANC 6B,SMD 6B02,About to Expire,Restaurant,,,,CHECKED,,,,,,,,,87,,,CHECKED,,2025/03/31 04:00:00+00,87,400360.25,135418.58,-76.99584775,38.88660732,50197,ABCALicenseePt_20619,{898D7C61-0B2C-4FB7-8BF6-8815F2B7E8D3},2025/02/28 21:50:13+00,2025/02/28 21:54:16+00,,20619
-8571382.18349796,4705221.77992169,ABRA-025153,Al-Hamd Incorporated,Aatish On The Hill,C,609 PENNSYLVANIA AVENUE SE,20003,Ward 6,ANC 6B,SMD 6B02,Active,Restaurant,,,,,,,,,,,,,42,,,,,2028/03/31 04:00:00+00,42,400170.58,135246.78,-76.99803393,38.88505974,5015,ABCALicenseePt_20620,{3C790D5D-9C7C-4812-98A7-B7A2FA45218D},2025/02/28 21:50:13+00,2025/02/28 21:54:16+00,,20620
-8571860.43897101,4705250.67518381,ABRA-000643,Kenneth H Nash Post 8,Kenneth H Nash Post 8 American Legion,C,224 D STREET SE,20003,Ward 6,ANC 6B,SMD 6B01,About to Expire,Club,,,,,,,,,,,,,,,,,,2025/03/31 04:00:00+00,,399797.83,135269.21,-77.00233017,38.88526146,49552,ABCALicenseePt_20621,{32A51DC8-5AA5-489F-9BFB-BAAED7D727B7},2025/02/28 21:50:13+00,2025/02/28 21:54:16+00,,20621
-8571135.68814551,4705435.2424155,ABRA-098813,"Boxcar Partners, LLC",Boxcar Tavern,C,224 7TH STREET SE,20003,Ward 6,ANC 6B,SMD 6B02,About to Expire,Restaurant,,,,CHECKED,,,,,,,,,99,,,CHECKED,,2025/03/31 04:00:00+00,99,400362.69,135412.48,-76.99581963,38.88655204,49542,ABCALicenseePt_20622,{8DF1ACBD-151C-47F5-BF37-4F79C89E440D},2025/02/28 21:50:13+00,2025/02/28 21:54:16+00,,20622
-8568594.45589013,4711776.97454174,ABRA-090270,"Lucky 7, LLC",LUCKY 7 LIQUOR,A,2314 RHODE ISLAND AVENUE NE,20018,Ward 5,ANC 5B,SMD 5B06,Active,Retail - Liquor Store,,,,,,,,,,,,,,,,,,2027/03/31 04:00:00+00,,402341.82,140333.82,-76.97299135,38.93088245,48792,ABCALicenseePt_20623,{5AAA33AA-D23A-4E0E-8A04-EA291EC6F621},2025/02/28 21:50:13+00,2025/02/28 21:54:16+00,,20623
-8568607.86116578,4711771.22910851,ABRA-109916,"Abaye, Inc.",7 Days Market,B,2310 RHODE ISLAND AVENUE NE,20018,Ward 5,ANC 5B,SMD 5B06,Active,Beer and Wine,,,,,,CHECKED,,,,,,,,,,,,2026/09/30 04:00:00+00,,402331.38,140329.36,-76.97311178,38.9308423,48736,ABCALicenseePt_20624,{B10993B8-8F02-4FE9-845E-2A38380A400F},2025/02/28 21:50:13+00,2025/02/28 21:54:16+00,,20624
-8571691.01914654,4710343.43005964,ABRA-072301,"Sylvia & David Industries, Inc",Sosnick's Liquor,A,2318 4TH STREET NE,20002,Ward 5,ANC 5F,SMD 5F04,Active,Retail - Liquor Store,,,,,,,,,,,,,,,,,,2027/03/31 04:00:00+00,,399929.91,139221.35,-77.00080825,38.92086409,48629,ABCALicenseePt_20625,{6F486775-2563-4096-B20B-C008509B046A},2025/02/28 21:50:13+00,2025/02/28 21:54:16+00,,20625
-8568147.75916538,4710373.981972,ABRA-131035,"Majha, Inc.",Syd's Liquor,A,2325 BLADENSBURG ROAD NE,20018,Ward 5,ANC 5C,SMD 5C04,Active,Retail - Liquor Store,,,,,,CHECKED,,,,,,,,,,,,2027/03/31 04:00:00+00,,402690.12,139245.51,-76.96897861,38.92107728,48573,ABCALicenseePt_20626,{2EA06359-6974-42E0-91FE-C041DEE67CBE},2025/02/28 21:50:13+00,2025/02/28 21:54:16+00,,20626
-8570547.35947635,4705455.47631772,ABRA-129523,"PDM, LLC",Mott's Market,B,233 12TH STREET SE,20003,Ward 6,ANC 6B,SMD 6B05,405.1 New Const,Retail - Class B,,,,,,,,,,,,,,,,,,2026/09/30 04:00:00+00,,400821.22,135428.22,-76.99053458,38.88669386,48415,ABCALicenseePt_20627,{56E1F8C8-8723-41D0-9E04-19FE46028E88},2025/02/28 21:50:13+00,2025/02/28 21:54:16+00,,20627
-8570547.35947635,4705455.47631772,ABRA-129563,"PDM, LLC",Mott's Market,C,233 12TH STREET SE,20003,Ward 6,ANC 6B,SMD 6B05,405.1 New Const,Tavern,,,,CHECKED,CHECKED,,,,,,,,75,,,CHECKED,,2026/09/30 04:00:00+00,,400821.22,135428.22,-76.99053458,38.88669386,48415,ABCALicenseePt_20628,{B443003B-8B32-4AB8-B0E5-459DD15FB22E},2025/02/28 21:50:13+00,2025/02/28 21:54:16+00,,20628
-8568130.71005767,4710416.65267111,ABRA-104228,"2335, LLC",Power Night Club/Lounge/Restaurant,C,2335 BLADENSBURG ROAD NE,20018,Ward 5,ANC 5C,SMD 5C04,Active,Tavern,,CHECKED,,,,,,CHECKED,CHECKED,,,,299,,,,,2025/09/30 04:00:00+00,299,402703.39,139278.62,-76.96882546,38.92137584,48294,ABCALicenseePt_20629,{5C3F1700-263B-4EED-8BAA-2A42716128F6},2025/02/28 21:50:13+00,2025/02/28 21:54:16+00,,20629
-8568433.46408304,4709609.09867247,ABRA-125734,"Taste Gourmet, LLC",DC Taste and B Lin Catering,Caterer,2410 T STREET NE,20002,Ward 5,ANC 5C,SMD 5C04,About to Expire,Caterer,,,,,,,,,,,,,,,,,,2025/03/31 04:00:00+00,,402467.74,138651.99,-76.97154514,38.91573164,47646,ABCALicenseePt_20630,{75CAF7CC-469A-4974-BF64-80D791B48E5C},2025/02/28 21:50:13+00,2025/02/28 21:54:16+00,,20630
-8571848.79658897,4707676.74200943,ABRA-092792,Four Five Eight LLC,INDIGO-Indian food on the go!,C,243 K STREET NE,20002,Ward 6,ANC 6C,SMD 6C06,About to Expire,Restaurant,,CHECKED,,CHECKED,,,,,,,,,60,,,CHECKED,,2025/03/31 04:00:00+00,60,399806.95,137152.16,-77.00222559,38.90222377,47157,ABCALicenseePt_20631,{45D30768-7105-46E0-A0E7-246E8293BA5E},2025/02/28 21:50:13+00,2025/02/28 21:54:16+00,,20631
-8572572.82019042,4710581.02564107,ABRA-112366,Capitol Incorporation,Capitol Market,B,2501 NORTH CAPITOL STREET NE,20002,Ward 5,ANC 5E,SMD 5E06,Active,Retail - Grocery,,,,,,,,,,,,,,,,,,2026/09/30 04:00:00+00,,399243,139405.72,-77.0087296,38.92252463,46731,ABCALicenseePt_20632,{0E21ABCB-EC83-4A40-9797-7DA5C4836500},2025/02/28 21:50:13+00,2025/02/28 21:54:16+00,,20632
-8570687.7696949,4706420.71350207,ABRA-126841,Root Retail LLC,7 River Mart,A,250 11TH STREET NE,20002,Ward 6,ANC 6A,SMD 6A07,Active,Retail - Liquor Store,,,,,,,,,,,,,,,,,,2027/03/31 04:00:00+00,,400711.72,136177.4,-76.99179591,38.89344284,46670,ABCALicenseePt_20633,{31B266DB-2780-46D4-9183-0D0ADB1623F5},2025/02/28 21:50:13+00,2025/02/28 21:54:16+00,,20633
-8572486.78251061,4703160.41275419,ABRA-120433,"The Cove Waterfront, LLC",The Cove,B,25 POTOMAC AVENUE SE,20003,Ward 8,ANC 8F,SMD 8F02,Active,Manufacturer,,,CHECKED,,CHECKED,,,,,,,,,,,,,2026/09/30 04:00:00+00,,399309.52,133646.56,-77.00795671,38.87064374,46652,ABCALicenseePt_20634,{8437E48E-EBF5-4302-ABEF-2F0539D91103},2025/02/28 21:50:13+00,2025/02/28 21:54:16+00,,20634
-8572489.93873806,4703755.72934416,ABRA-081924,"Fairgrounds, LLC",The Bullpen,C,26 N STREET SE,20003,Ward 8,ANC 8F,SMD 8F02,Active,Tavern,,CHECKED,,,,,,,,,,,400,,,,,2025/09/30 04:00:00+00,400,399307.1,134108.74,-77.00798506,38.87480758,46117,ABCALicenseePt_20635,{894FDCDE-825C-489E-8DF5-E0B2E294369E},2025/02/28 21:50:13+00,2025/02/28 21:54:16+00,,20635
-8572489.93873806,4703755.72934416,ABRA-119970,Mission Group 26 N St L.L.C.,Royal Sands Social Club,C,26 N STREET SE,20003,Ward 8,ANC 8F,SMD 8F02,Active,Tavern,,CHECKED,,CHECKED,,,,,CHECKED,CHECKED,,,727,,,CHECKED,,2025/09/30 04:00:00+00,727,399307.1,134108.74,-77.00798506,38.87480758,46117,ABCALicenseePt_20636,{140881CC-3F09-4E10-B9F8-18C83F5D902C},2025/02/28 21:50:13+00,2025/02/28 21:54:16+00,,20636
-8568165.27776656,4710804.69259638,ABRA-060731,"Dops, Inc.","Dops, Inc",A,2611 EVARTS STREET NE,20018,Ward 5,ANC 5C,SMD 5C02,Active,Wholesaler,,,,,,,,,,,,,,,,,,2027/03/31 04:00:00+00,,402676.36,139579.66,-76.96913598,38.92408779,45875,ABCALicenseePt_20637,{1A20AD06-ECC2-4CB9-A556-49CECD962C3F},2025/02/28 21:50:13+00,2025/02/28 21:54:16+00,,20637
-8568165.27776656,4710804.69259638,ABRA-122126,"Vines & Bines, LLC",Vintage Views Bar,Caterer,2611 EVARTS STREET NE,20018,Ward 5,ANC 5C,SMD 5C02,Active,Caterer,,,,,,,,,,,,,,,,,,2025/03/31 04:00:00+00,,402676.36,139579.66,-76.96913598,38.92408779,45875,ABCALicenseePt_20638,{B40DA7A4-A00F-459A-98C3-0AAB63E89C47},2025/02/28 21:50:13+00,2025/02/28 21:54:16+00,,20638
-8570505.32117534,4710880.84125701,ABRA-106366,"Salumeria 2703, LLC",Salumeria 2703,B,2703 12TH STREET NE,20018,Ward 5,ANC 5B,SMD 5B03,Active,Retail - Full Service Grocery,,,,,,,,,,,,,,,,,,2026/09/30 04:00:00+00,,400853.53,139638.33,-76.99015694,38.92461963,45444,ABCALicenseePt_20639,{2BB0149A-4C78-4235-A802-7BBBD26D4198},2025/02/28 21:50:13+00,2025/02/28 21:54:16+00,,20639
-8570505.79261772,4710913.90401887,ABRA-088564,Menomale LLC,"Menomale, LLC",C,2711 12TH STREET NE,20018,Ward 5,ANC 5B,SMD 5B03,About to Expire,Restaurant,,,,CHECKED,,,,,,,,,38,,,CHECKED,,2025/03/31 04:00:00+00,38,400853.16,139663.98,-76.99016118,38.92485103,45331,ABCALicenseePt_20640,{66EB20D0-7343-4153-A2E4-A903BE2D0E90},2025/02/28 21:50:13+00,2025/02/28 21:54:16+00,,20640
-8567728.14645039,4710913.51887566,ABRA-126599,"Sai Liquors, LLC",Sammy's Liquors,A,2725 BLADENSBURG ROAD NE,20018,Ward 5,ANC 5C,SMD 5C04,Active,Retail - Liquor Store,,,,,,CHECKED,,,,,,,,,,,,2027/03/31 04:00:00+00,,403016.84,139664.21,-76.96520917,38.92484834,45109,ABCALicenseePt_20641,{FFE2ABF2-CAF3-447C-A1D9-A3CD8C6F26B6},2025/02/28 21:50:13+00,2025/02/28 21:54:16+00,,20641
-8571147.50226174,4710994.03876165,ABRA-098506,BT & G Inc.,Franklin Liquors & Market,A,2723 7TH STREET NE,20017,Ward 5,ANC 5F,SMD 5F03,Active,Retail - Liquor Store,,,,,,CHECKED,,,,,,,,,,,,2027/03/31 04:00:00+00,,400353.29,139726.11,-76.99592575,38.92541106,45060,ABCALicenseePt_20642,{A45D9734-7017-4B37-8295-D8B3AE550B0B},2025/02/28 21:50:13+00,2025/02/28 21:54:16+00,,20642
-8571191.7016317,4699807.70535313,ABRA-001271,Georgene Thompson,Player's Lounge,C,2737 MARTIN LUTHER KING JR AVENUE SE,20032,Ward 8,ANC 8C,SMD 8C01,Active,Nightclub,,,,,,,,,,,,,75,CHECKED,,,,2025/09/30 04:00:00+00,75,400319.21,131043.13,-76.99632281,38.84719149,44965,ABCALicenseePt_20643,{568BD994-83DA-4D86-B27C-71E82DCF2354},2025/02/28 21:50:13+00,2025/02/28 21:54:16+00,,20643
-8571191.7016317,4699807.70535313,ABRA-119314,"Gentlemen's Agreement, LLC",Ace's Lounge,C,2737 MARTIN LUTHER KING JR AVENUE SE,20032,Ward 8,ANC 8C,SMD 8C01,Active,Tavern,,CHECKED,,,,,,CHECKED,CHECKED,,,,67,,,,,2025/09/30 04:00:00+00,,400319.21,131043.13,-76.99632281,38.84719149,44965,ABCALicenseePt_20644,{93A8DD34-8EA4-4FBE-A45A-A92418077EBE},2025/02/28 21:50:13+00,2025/02/28 21:54:16+00,,20644
-8570795.41086027,4711051.94499939,ABRA-101946,"Esencias Panamenas, Inc.",Esencias Panamenas,Caterer,2800 10TH STREET NE,20017,Ward 5,ANC 5B,SMD 5B04,About to Expire,Caterer,,,,,,,,,,,,,,,,,,2024/03/31 04:00:00+00,,400627.55,139771.05,-76.99276286,38.92581574,44894,ABCALicenseePt_20645,{7764ED89-8843-4F37-A90D-A385688A815C},2025/02/28 21:50:13+00,2025/02/28 21:54:16+00,,20645
-8570795.41086027,4711051.94499939,ABRA-106464,"K & A Catering, LLC",JD Chicken & Ribs,Caterer,2800 10TH STREET NE,20017,Ward 5,ANC 5B,SMD 5B04,About to Expire,Caterer,,,,,,,,,,,,,,,,,,2024/03/31 04:00:00+00,,400627.55,139771.05,-76.99276286,38.92581574,44894,ABCALicenseePt_20646,{49AD2B0D-8EEE-4938-8D8C-3263C1B12802},2025/02/28 21:50:13+00,2025/02/28 21:54:16+00,,20646
-8570795.41086027,4711051.94499939,ABRA-106587,"Kirk's Cookies & Makers, LLC",Tastemakers,C,2800 10TH STREET NE,20017,Ward 5,ANC 5B,SMD 5B04,About to Expire,Restaurant,,,,,,,,,,,,,71,,,CHECKED,,2025/03/31 04:00:00+00,71,400627.55,139771.05,-76.99276286,38.92581574,44894,ABCALicenseePt_20647,{C5DF0FC3-D6FA-4CAE-99E3-F320F39E3338},2025/02/28 21:50:13+00,2025/02/28 21:54:16+00,,20647
-8570795.41086027,4711051.94499939,ABRA-111150,"Tyson's Creations, LLC",Tres Creole Catering,Caterer,2800 10TH STREET NE,20017,Ward 5,ANC 5B,SMD 5B04,About to Expire,Caterer,,,,,,,,,,,,,,,,,,2025/03/31 04:00:00+00,,400627.55,139771.05,-76.99276286,38.92581574,44894,ABCALicenseePt_20648,{1599B290-3E34-4CBE-B044-DE6ECAAB2170},2025/02/28 21:50:13+00,2025/02/28 21:54:16+00,,20648
-8570795.41086027,4711051.94499939,ABRA-114575,"Wine Key Experience, LLC",Wine Key Experience,Caterer,2800 10TH STREET NE,20017,Ward 5,ANC 5B,SMD 5B04,Active,Caterer,,,,,,,,,,,,,,,,,,2026/03/31 04:00:00+00,,400627.55,139771.05,-76.99276286,38.92581574,44894,ABCALicenseePt_20649,{8D69BC3D-2F6C-4CD4-B8A5-F722156FD5F3},2025/02/28 21:50:13+00,2025/02/28 21:54:16+00,,20649
-8570795.41086027,4711051.94499939,ABRA-122131,"Grubrub, LLC",Grub Rockstar,Caterer,2800 10TH STREET NE,20017,Ward 5,ANC 5B,SMD 5B04,About to Expire,Caterer,,,,,,,,,,,,,,,,,,2025/03/31 04:00:00+00,,400627.55,139771.05,-76.99276286,38.92581574,44894,ABCALicenseePt_20650,{B361153F-2CEA-4091-8E51-B8322884D086},2025/02/28 21:50:13+00,2025/02/28 21:54:16+00,,20650
-8570795.41086027,4711051.94499939,ABRA-125433,The Chosen Chef Catering & Events,The Chosen Chef Catering & Events,Caterer,2800 10TH STREET NE,20017,Ward 5,ANC 5B,SMD 5B04,About to Expire,Caterer,,,,,,,,,,,,,,,,,,2025/03/31 04:00:00+00,,400627.55,139771.05,-76.99276286,38.92581574,44894,ABCALicenseePt_20651,{CD27B147-0B59-4766-8626-4586420991FF},2025/02/28 21:50:13+00,2025/02/28 21:54:16+00,,20651
-8570795.41086027,4711051.94499939,ABRA-127864,Jangueo Moblie Bar LLC,Jangueo Mobile Bar,Caterer,2800 10TH STREET NE,20017,Ward 5,ANC 5B,SMD 5B04,About to Expire,Caterer,,,,,,,,,,,,,,,,,,2025/03/07 05:00:00+00,,400627.55,139771.05,-76.99276286,38.92581574,44894,ABCALicenseePt_20652,{ECF0F024-63CE-4675-A9EC-C3E9B8413EC2},2025/02/28 21:50:13+00,2025/02/28 21:54:16+00,,20652
-8570795.41086027,4711051.94499939,ABRA-130283,"Lifeing Enterprise, LLC",Eat To Live Catering,Caterer,2800 10TH STREET NE,20017,Ward 5,ANC 5B,SMD 5B04,About to Expire,Caterer,,,,,,,,,,,,,,,,,,2025/03/31 04:00:00+00,,400627.55,139771.05,-76.99276286,38.92581574,44894,ABCALicenseePt_20653,{A85F8C17-3CAC-4606-AADF-3A8625C6E123},2025/02/28 21:50:13+00,2025/02/28 21:54:16+00,,20653
-8571216.88971676,4699742.19316261,ABRA-115969,HD Liquors Inc.,King Avenue Liquor,A,2757 MARTIN LUTHER KING JR AVENUE SE,20032,Ward 8,ANC 8C,SMD 8C01,Active,Retail - Liquor Store,,,,,,,,,,,,,,,,,,2027/03/31 04:00:00+00,,400299.57,130992.25,-76.9965490761413,38.8467328151756,44813,ABCALicenseePt_20654,{588B864A-B96D-4CE7-BD2B-BE6F618FA724},2025/02/28 21:50:13+00,2025/02/28 21:54:16+00,,20654
-8571014.98723701,4711068.2403444,ABRA-097569,"Dew Drop Inn, LLC",Dew Drop Inn,C,2801 8TH STREET NE,20017,Ward 5,ANC 5F,SMD 5F02,Active,Tavern,,CHECKED,,,CHECKED,,,CHECKED,CHECKED,,,,278,,,,CHECKED,2025/09/30 04:00:00+00,278,400456.51,139783.68,-76.99473535,38.92592929,44723,ABCALicenseePt_20655,{D88C1124-DDA7-4DC2-B512-CBED049A7073},2025/02/28 21:50:13+00,2025/02/28 21:54:16+00,,20655
-8568307.01151985,4710023.85187121,ABRA-026023,Capital Eagle Inc,Capital Eagle Inc,A,2815 V STREET NE,20018,Ward 5,ANC 5C,SMD 5C04,Active,Wholesaler,,,,,,,,,,,,,,,,,,2027/03/31 04:00:00+00,,402566.15,138973.82,-76.9704092,38.91863018,44423,ABCALicenseePt_20656,{E519C218-AE64-4FA6-BF3B-42ACDACFD2BD},2025/02/28 21:50:13+00,2025/02/28 21:54:16+00,,20656
-8571141.11733429,4711095.96073694,ABRA-129872,"BMT Enterprise, LLC",Brookland Supermarket & Deli,B,2815 7TH STREET NE,20017,Ward 5,ANC 5F,SMD 5F02,Active,Retail - Grocery,,,,,,,,,,,,,,,,,,2026/09/30 04:00:00+00,,400358.26,139805.18,-76.9958684,38.92612334,44401,ABCALicenseePt_20657,{E95F76C2-CCAC-4D3B-A843-A6FE7C9A19CF},2025/02/28 21:50:13+00,2025/02/28 21:54:16+00,,20657
-8571368.95547978,4705214.38488218,ABRA-072633,"18th Amendment, LLC",Barrel,C,613 PENNSYLVANIA AVENUE SE,20003,Ward 6,ANC 6B,SMD 6B02,Active,Tavern,,CHECKED,,CHECKED,,,,,,,,,99,,,CHECKED,,2025/09/30 04:00:00+00,99,400180.89,135241.04,-76.9979151,38.88500803,4406,ABCALicenseePt_20658,{649999CE-2BF2-4039-BA99-42A56935E0BC},2025/02/28 21:50:13+00,2025/02/28 21:54:16+00,,20658
-8571335.05137941,4699533.2734799,ABRA-108836,"ChoDaeBak, Inc.",Mart Liquors,A,2931 MARTIN LUTHER KING JR AVENUE SE,20032,Ward 8,ANC 8C,SMD 8C02,Active,Retail - Liquor Store,,,,,,CHECKED,,,,,,,,,,,,2027/03/31 04:00:00+00,,400207.43,130829.99,-76.99761054,38.84527147,43001,ABCALicenseePt_20659,{552F69B2-CCA8-432A-BF49-7BFE453D49D9},2025/02/28 21:50:13+00,2025/02/28 21:54:16+00,,20659
-8572220.76189784,4705326.26937466,ABRA-000626,National Republican Club of Capitol Hill Inc.,Capitol Hill Club,C,300 1ST STREET SE,20003,Ward 6,ANC 6B,SMD 6B01,About to Expire,Club,,,,,,,,,,,,,,,,CHECKED,,2025/03/31 04:00:00+00,,399517,135327.9,-77.00556701,38.88579005,42689,ABCALicenseePt_20660,{8F5520D0-2765-4FF2-9AB6-52D0C29C6830},2025/02/28 21:50:13+00,2025/02/28 21:54:16+00,,20660
-8572487.44064845,4705124.29810637,ABRA-000793,National Democratic Club Inc.,National Democratic Club,C,30 IVY STREET SE,20003,Ward 6,ANC 6B,SMD 6B01,About to Expire,Club,,,,,,,,,,,,,,,,CHECKED,,2025/03/31 04:00:00+00,,399309.14,135171.14,-77.00796262,38.88437809,42658,ABCALicenseePt_20661,{86F569EA-018A-45F4-9A37-72D06DC074AC},2025/02/28 21:50:13+00,2025/02/28 21:54:16+00,,20661
-8571808.37705033,4705455.01365833,ABRA-117582,"Mendelsohn 301, LLC",Santa Rosa Taqueria,C,301 PENNSYLVANIA AVENUE SE,20003,Ward 6,ANC 6B,SMD 6B02,About to Expire,Restaurant,,,,,,,,,,,,,120,,,,,2025/03/31 04:00:00+00,120,399838.41,135427.82,-77.00186249,38.88669062,42197,ABCALicenseePt_20662,{C07C80B6-9811-420C-B6C8-C89219342417},2025/02/28 21:50:13+00,2025/02/28 21:54:16+00,,20662
-8571806.48699904,4706531.71308554,ABRA-121435,"RD2 Cap Hill, LLC",Pupatella Pizza,C,301 MASSACHUSETTS AVENUE NE,20002,Ward 6,ANC 6C,SMD 6C02,About to Expire,Restaurant,,CHECKED,,CHECKED,,,,,,,,,115,,,CHECKED,,2025/03/31 04:00:00+00,115,399839.9,136263.52,-77.00184551,38.89421858,42192,ABCALicenseePt_20663,{162B0E1F-0876-4FAE-A56D-EB3C5981009B},2025/02/28 21:50:13+00,2025/02/28 21:54:16+00,,20663
-8571796.40585608,4705448.8686466,ABRA-082062,"Kookoovaya, Inc","We, The Pizza",C,305 PENNSYLVANIA AVENUE SE,20003,Ward 6,ANC 6B,SMD 6B02,About to Expire,Restaurant,,,,CHECKED,,,,,,,,,116,,,CHECKED,,2025/03/31 04:00:00+00,116,399847.74,135423.05,-77.00175495,38.88664765,41103,ABCALicenseePt_20664,{9E232555-7E85-4CDC-B7C7-9A205FC69DFF},2025/02/28 21:50:13+00,2025/02/28 21:54:16+00,,20664
-8571781.04882322,4705525.09864026,ABRA-125021,E & C Inc,Los Caballeros Restaurant,C,308 PENNSYLVANIA AVENUE SE,20003,Ward 6,ANC 6B,SMD 6B02,About to Expire,Restaurant,,CHECKED,,,,,,,,,,,80,,,CHECKED,,2025/03/31 04:00:00+00,,399859.71,135482.22,-77.001617,38.88718068,40958,ABCALicenseePt_20665,{D0C050CB-89CB-41B9-8076-BAF82CE6155A},2025/02/28 21:50:13+00,2025/02/28 21:54:16+00,,20665
-8571579.27147707,4699287.54685491,ABRA-013885,Vincent H. Covert,M L K Deli,B,3113 MARTIN LUTHER KING JR AVENUE SE,20032,Ward 8,ANC 8C,SMD 8C04,Active,Retail - Grocery,,,,,,,,,,,,,,,,,,2026/09/30 04:00:00+00,,400016.98,130639.14,-76.99980441,38.84355223,40211,ABCALicenseePt_20666,{35B361C7-8F0B-4EB6-87FA-93710268F0B3},2025/02/28 21:50:13+00,2025/02/28 21:54:16+00,,20666
-8571723.30992643,4706575.93405584,ABRA-116230,"316 MA, LLC",Bistro Cacao,C,316 MASSACHUSETTS AVENUE NE,20002,Ward 6,ANC 6C,SMD 6C02,About to Expire,Restaurant,,,,CHECKED,,,,,,,,,49,,,CHECKED,,2025/03/31 04:00:00+00,49,399904.72,136297.84,-77.00109832,38.89452776,39311,ABCALicenseePt_20667,{F8C352BE-3115-46A6-B6C5-A1D936DBF87A},2025/02/28 21:50:13+00,2025/02/28 21:54:16+00,,20667
-8571203.4011419,4705298.1571057,ABRA-100249,Colorado & Cohen LLC,"Bullfrog Bagels, Pesce",C,317 7TH STREET SE,20003,Ward 6,ANC 6B,SMD 6B02,About to Expire,Restaurant,,,,CHECKED,,,,,,,,,35,,,,,2025/03/31 04:00:00+00,35,400309.92,135306.07,-76.9964279,38.88559381,39146,ABCALicenseePt_20668,{BC39D606-29D5-4D49-8C9D-33624D732883},2025/02/28 21:50:13+00,2025/02/28 21:54:16+00,,20668
-8571732.22904393,4706636.11777001,ABRA-115488,Nostra Cucina LLC,Nostra Cucina,C,320 D STREET NE,20002,Ward 6,ANC 6C,SMD 6C02,About to Expire,Restaurant,,,,,,,,,,,,,35,,,CHECKED,CHECKED,2025/03/31 04:00:00+00,35,399897.77,136344.55,-77.00117844,38.89494888,38988,ABCALicenseePt_20669,{4E0C4711-2B48-437E-B2E6-9616DD48A3EE},2025/02/28 21:50:13+00,2025/02/28 21:54:16+00,,20669
-8571711.80622239,4709547.65245687,ABRA-128455,"BETU, LLC",T Street Market,B,321 T STREET NE,20002,Ward 5,ANC 5F,SMD 5F05,Active,Retail - Class B,,,,,,CHECKED,,,,,,,,,,,,2026/09/30 04:00:00+00,,399913.71,138603.93,-77.00099498,38.91530216,38666,ABCALicenseePt_20670,{85D9A42D-B484-42ED-9073-DCF8DAF8133A},2025/02/28 21:50:13+00,2025/02/28 21:54:16+00,,20670
-8570995.75721763,4711701.16552837,ABRA-125838,"Dance Place, Inc.",Dance Place,C,3225 8TH STREET NE,20017,Ward 5,ANC 5F,SMD 5F02,About to Expire,Multipurpose,,CHECKED,,,,,,CHECKED,CHECKED,,,,452,,,,,2025/03/31 04:00:00+00,452,400471.46,140274.68,-76.9945626,38.93035269,38045,ABCALicenseePt_20671,{0E15165B-85E4-407D-BBCA-A2FF7963D949},2025/02/28 21:50:13+00,2025/02/28 21:54:16+00,,20671
-8571200.69480202,4705275.09657658,ABRA-118360,"La Casina 1978, LLC",La Casina DC,C,325 7TH STREET SE,20003,Ward 6,ANC 6B,SMD 6B02,About to Expire,Restaurant,,,,,,,,,,,,,38,,,,,2025/03/31 04:00:00+00,38,400312.03,135288.17,-76.99640359,38.88543256,37582,ABCALicenseePt_20672,{F711B372-4686-40D6-8E69-EEEAB0BDF7EC},2025/02/28 21:50:13+00,2025/02/28 21:54:16+00,,20672
-8570010.20685396,4705169.04395714,ABRA-077335,"Ventura, LLC",Albert's Liquors,A,328 KENTUCKY AVENUE SE,20003,Ward 6,ANC 6B,SMD 6B07,Active,Retail - Liquor Store,,,,,,,,,,,,,,,,,,2027/03/31 04:00:00+00,,401239.9,135205.94,-76.98570926,38.88469065,37409,ABCALicenseePt_20673,{8A08ECD9-657C-4643-BBB2-C2B65A30AA30},2025/02/28 21:50:13+00,2025/02/28 21:54:16+00,,20673
-8571205.3655495,4705263.68251415,ABRA-124503,"Ukrainian Restaurant Concept Group, LLC",Ruta Ukrainian Restaurant,C,327 7TH STREET SE,20003,Ward 6,ANC 6B,SMD 6B02,About to Expire,Restaurant,,,,,,,,,,,,,80,,,,,2025/03/31 04:00:00+00,38,400308.39,135279.31,-76.99644555,38.88535275,37312,ABCALicenseePt_20674,{97898266-24BB-4C19-A0CC-C36FEA9DD705},2025/02/28 21:50:13+00,2025/02/28 21:54:16+00,,20674
-8572466.06334566,4708429.10524593,ABRA-106218,"Excel Holdings 10, LLC",Hyatt Place Washington DC/ US Capitol,C,33 NEW YORK AVENUE NE,20002,Ward 6,ANC 6E,SMD 6E05,About to Expire,Hotel,,CHECKED,,,,,,,,,,,200,,,,,2025/03/31 04:00:00+00,200,399326.02,137736.03,-77.00777059,38.90748324,37070,ABCALicenseePt_20675,{7C786F1E-EC79-44D3-8F09-BA21CD1FB9AE},2025/02/28 21:50:13+00,2025/02/28 21:54:16+00,,20675
-8571830.54466892,4716673.62376315,ABRA-019598,"Manee Enterprises, Inc.",Takoma Park Liquors,A,6200 EASTERN AVENUE NE,20011,Ward 4,ANC 4B,SMD 4B10,Active,Retail - Liquor Store,,,,,,CHECKED,,,,,,,,,,,,2027/03/31 04:00:00+00,,399821.33,144131.06,-77.00206162,38.96509181,3698,ABCALicenseePt_20676,{B37A0A0D-AF0F-4C25-A92D-644696B8708E},2025/02/28 21:50:13+00,2025/02/28 21:54:16+00,,20676
-8571713.93674503,4708371.46022383,ABRA-126835,"S & S Union Market, LLC",Scissors & Scotch,C,331 N STREET NE,20002,Ward 6,ANC 6C,SMD 6C07,Active,Tavern,,,,,,,,,,,,,25,,,,,2025/09/30 04:00:00+00,,399912.04,137691.27,-77.00101412,38.90708028,36737,ABCALicenseePt_20677,{C990968F-4E23-457D-A589-8DB5F84BFF1D},2025/02/28 21:50:13+00,2025/02/28 21:54:16+00,,20677
-8571338.74031649,4705194.64767336,ABRA-089616,"ANB 623, LLC",Beuchert's Saloon,C,623 PENNSYLVANIA AVENUE SE,20003,Ward 6,ANC 6B,SMD 6B02,About to Expire,Restaurant,,,,CHECKED,CHECKED,,,,,,,,61,,,CHECKED,,2025/03/31 04:00:00+00,61,400204.44,135225.72,-76.99764368,38.88487002,3427,ABCALicenseePt_20678,{AF11523A-EDF6-4D4F-9D91-082938E25B1E},2025/02/28 21:50:13+00,2025/02/28 21:54:16+00,,20678
-8572230.66852464,4704518.26790284,ABRA-126799,"Slow it Down, LLC",Ama,C,885 NEW JERSEY AVENUE SE,20003,Ward 6,ANC 8F,SMD 8F05,About to Expire,Restaurant,,,,,,,,,,,,,126,,,CHECKED,,2025/03/31 04:00:00+00,126,399509.24,134700.69,-77.00565600125,38.8801398975775,338914,ABCALicenseePt_20679,{F56322E1-9021-47EC-ADE1-460BC221D96A},2025/02/28 21:50:13+00,2025/02/28 21:54:16+00,,20679
-8570151.07467096,4702618.46392602,ABRA-127472,"SERG- DC, LLC",DCity Smokehouse,C,1301 MARION BARRY AVENUE SE,20020,Ward 8,ANC 8A,SMD 8A06,Active,Tavern,,CHECKED,,,,,,,,,,,46,,,,,2025/09/30 04:00:00+00,46,401130.39,133225.84,-76.9869747,38.86685327,338306,ABCALicenseePt_20680,{243629A0-B6B3-40D5-83A7-A82ED4154785},2025/02/28 21:50:13+00,2025/02/28 21:54:16+00,,20680
-8570279.8163113,4702654.45426663,ABRA-130637,"Sapodilla's DC, LLC",Sapodilla's DC,C,1215 MARION BARRY AVENUE SE,20020,Ward 8,ANC 8A,SMD 8A06,About to Expire,Restaurant,,CHECKED,,,,,,CHECKED,,,,,142,,,CHECKED,,2025/03/31 04:00:00+00,142,401030.02,133253.77,-76.9881312,38.867105,338297,ABCALicenseePt_20681,{D26A8088-53A2-48D9-BEE2-F5C98F5EC6EF},2025/02/28 21:50:13+00,2025/02/28 21:54:16+00,,20681
-8571855.10308389,4708400.94265564,ABRA-128137,"Maahk Meetings Tenant, LLC",Manifest,C,1242 3RD STREET NE,20002,Ward 6,ANC 6C,SMD 6C07,405.1 New Const,Tavern,,CHECKED,,CHECKED,CHECKED,,,CHECKED,,,,,500,,,CHECKED,,2025/09/30 04:00:00+00,,399802.05,137714.15,-77.0022822388884,38.9072863702865,338139,ABCALicenseePt_20682,{C436186C-485E-47A0-96D6-D86AFAD5D4B1},2025/02/28 21:50:13+00,2025/02/28 21:54:16+00,,20682
-8572104.18039815,4703707.76139459,ABRA-124925,"Maman Navy Yard, LLC",Maman,C,141 N STREET SE,20003,Ward 8,ANC 8F,SMD 8F02,About to Expire,Restaurant,,,,CHECKED,,,,,,,,,109,,,CHECKED,,2025/03/31 04:00:00+00,109,399607.8,134071.48,-77.00451974,38.87447178,337335,ABCALicenseePt_20683,{8C380FDE-497E-4B80-B8BE-08AFD85F3AA0},2025/02/28 21:50:13+00,2025/02/28 21:54:16+00,,20683
-8574245.02048045,4706928.37386018,ABRA-122856,"Nando's Restaurant Group, Inc.",Nando's Peri Peri,C,836 F STREET NW,20004,Ward 2,ANC 2C,SMD 2C03,About to Expire,Restaurant,,,,CHECKED,,,,,,,,,93,,,CHECKED,CHECKED,2025/03/31 04:00:00+00,93,397939.64,136571.64,-77.02375123,38.89699184,337084,ABCALicenseePt_20684,{6B0E89BF-C4C8-430B-BD02-8912778F26D9},2025/02/28 21:50:13+00,2025/02/28 21:54:16+00,,20684
-8571326.20873189,4708874.29874555,ABRA-129164,"Raceway Washington DC, LLC",F1 Arcade,C,420 PENN STREET NE,20002,Ward 5,ANC 5D,SMD 5D01,Active,Tavern,,CHECKED,,,,,,CHECKED,,,,,432,,,,,2025/09/30 04:00:00+00,432,400214.13,138081.46,-76.9975311,38.91059522,336635,ABCALicenseePt_20685,{E69C5771-6139-4FEB-A1C0-BD6BE44CAAAA},2025/02/28 21:50:13+00,2025/02/28 21:54:16+00,,20685
-8572178.5005324,4707863.30534996,ABRA-121372,NOMA Hotel XXXVII Owner LLC,Washington Marriott Capitol Hill/Noma/Yara,C,175 L STREET NE,20002,Ward 6,ANC 6E,SMD 6E07,About to Expire,Hotel,,CHECKED,,,CHECKED,,,,,,,,235,,,CHECKED,,2025/03/31 04:00:00+00,,399550.05,137296.95,-77.00518737,38.90352799,336407,ABCALicenseePt_20686,{0CF717E2-37BF-4D24-A1D8-C59EC7EABED4},2025/02/28 21:50:13+00,2025/02/28 21:54:16+00,,20686
-8566930.81551829,4709960.45172539,ABRA-120535,"DJR Enterprises, LLC",Whiskey Shop DC,A,3525 V STREET NE,20018,Ward 5,ANC 5C,SMD 5C04,Active,Internet,,,,,,,,,,CHECKED,,,,,,,,2027/03/31 04:00:00+00,,403638.27,138925.05,-76.95804662,38.91818706,33593,ABCALicenseePt_20687,{3C19398B-F065-4764-BD97-4EB1A4FE957B},2025/02/28 21:50:13+00,2025/02/28 21:54:16+00,,20687
-8566930.81551829,4709960.45172539,ABRA-122099,Full Glass Enterprises Inc.,Full Glass Enterprises,A,3525 V STREET NE,20018,Ward 5,ANC 5C,SMD 5C04,Active,Internet,,,,,,,,,,,,,,,,,,2027/03/31 04:00:00+00,,403638.27,138925.05,-76.95804662,38.91818706,33593,ABCALicenseePt_20688,{FD8B61D5-DB46-49D1-B62E-72BDB55AD13F},2025/02/28 21:50:13+00,2025/02/28 21:54:16+00,,20688
-8566930.81551829,4709960.45172539,ABRA-123823,"Otherwise Rosey, LLC",Otherwise Rosey,A,3525 V STREET NE,20018,Ward 5,ANC 5C,SMD 5C04,Issued,Internet,,,,,,,,,,,,,,,,,,2027/03/31 04:00:00+00,,403638.27,138925.05,-76.95804662,38.91818706,33593,ABCALicenseePt_20689,{EC6971D1-84E4-4BC6-9FBE-D71D4907C987},2025/02/28 21:50:13+00,2025/02/28 21:54:16+00,,20689
-8566930.81551829,4709960.45172539,ABRA-126040,"Navarro Online, LLC",Navarro Online,A,3525 V STREET NE,20018,Ward 5,ANC 5C,SMD 5C04,Active,Internet,,,,,,,,,,,,,,,,,,2027/03/31 04:00:00+00,,403638.27,138925.05,-76.95804662,38.91818706,33593,ABCALicenseePt_20690,{B99CBC87-8FF3-4AED-9853-FC4C65364E52},2025/02/28 21:50:13+00,2025/02/28 21:54:16+00,,20690
-8574669.12348202,4718238.39236974,ABRA-125275,"Walter Reed Ramen, LLC",Jinya Ramen Bar,C,1155 DAHLIA STREET NW,20012,Ward 4,ANC 4A,SMD 4A03,About to Expire,Restaurant,,,,,,,,,,,,,233,,,CHECKED,,2025/03/31 04:00:00+00,,397611.8,145344.59,-77.027561,38.97602035,335855,ABCALicenseePt_20691,{D0EF51BD-2B49-4B27-940A-7C23FF293F09},2025/02/28 21:50:13+00,2025/02/28 21:54:16+00,,20691
-8570295.67026733,4702658.21717342,ABRA-122521,"The Gaston Group, LLC",Kitchen Savages,C,1211 GOOD HOPE ROAD SE,20020,Ward 8,ANC 8A,SMD 8A06,About to Expire,Restaurant,,,,,,,,,,,,,38,,,,,2025/03/31 04:00:00+00,40,401017.66,133256.69,-76.98827362,38.86713132,335840,ABCALicenseePt_20692,{0A56A162-BCE9-408B-8DF7-B2881E31746E},2025/02/28 21:50:13+00,2025/02/28 21:54:16+00,,20692
-8570295.67026733,4702658.21717342,ABRA-124045,"The Gaston Group, LLC",Kitchen Savages,Caterer,1211 GOOD HOPE ROAD SE,20020,Ward 8,ANC 8A,SMD 8A06,About to Expire,Caterer,,,,,,,,,,,,,,,,,,2024/03/31 04:00:00+00,,401017.66,133256.69,-76.98827362,38.86713132,335840,ABCALicenseePt_20693,{825B9EEA-971A-464C-9962-1E30D50199CA},2025/02/28 21:50:13+00,2025/02/28 21:54:16+00,,20693
-8576870.48695932,4707491.49272558,ABRA-127037,"BODEGA FB, LLC",Bodega Taqueria y Tequila,C,2127 I STREET NW,20037,Ward 2,ANC 2A,SMD 2A08,Active,Tavern,,CHECKED,,,,,,CHECKED,CHECKED,,,,109,,,CHECKED,,2025/09/30 04:00:00+00,109,395893.93,137009.46,-77.04733619,38.90092871,335725,ABCALicenseePt_20694,{5A4DA1D1-0928-465E-A3FD-8EB5350A5470},2025/02/28 21:50:13+00,2025/02/28 21:54:16+00,,20694
-8570574.0963041,4712114.11440192,ABRA-119275,"Queen of Noise, LLC",The Runaway,C,3523 12TH STREET NE,20017,Ward 5,ANC 5B,SMD 5B02,About to Expire,Restaurant,,CHECKED,,CHECKED,CHECKED,,,CHECKED,CHECKED,,,,165,,,,,2025/03/31 04:00:00+00,165,400799.86,140595.04,-76.99077476,38.93323836,33535,ABCALicenseePt_20695,{46A346AE-F9B4-48AF-AE24-108CADA836E4},2025/02/28 21:50:13+00,2025/02/28 21:54:16+00,,20695
-8566984.2806676,4709957.07361723,ABRA-106515,"Zachys DC, LLC",Zachys Fine Wine Storage,A,3521 V STREET NE,20018,Ward 5,ANC 5C,SMD 5C04,Active,Retail - Liquor Store,,,,,,CHECKED,,,,,,,,,,,,2027/03/31 04:00:00+00,,403596.62,138922.41,-76.95852691,38.91816378,33519,ABCALicenseePt_20696,{A50A328F-9081-47D9-94C7-E65EF9573CF3},2025/02/28 21:50:13+00,2025/02/28 21:54:16+00,,20696
-8566984.2806676,4709957.07361723,ABRA-117261,"Vino 301 Wine Concierge, LLC",The Wine Concierge,B,3521 V STREET NE,20018,Ward 5,ANC 5C,SMD 5C04,Active,Internet,,,,,,CHECKED,,,,,,,,,,,,2026/09/30 04:00:00+00,,403596.62,138922.41,-76.95852691,38.91816378,33519,ABCALicenseePt_20697,{0157F307-2D70-4A38-AE8E-1026B3CA3682},2025/02/28 21:50:13+00,2025/02/28 21:54:16+00,,20697
-8566984.2806676,4709957.07361723,ABRA-118212,"Mad Wild Wine, LLC",Mad Wild Wine Co.,B,3521 V STREET NE,20018,Ward 5,ANC 5C,SMD 5C04,Active,Wholesaler,,,,,,,,,,,,,,,,,,2026/09/30 04:00:00+00,,403596.62,138922.41,-76.95852691,38.91816378,33519,ABCALicenseePt_20698,{0C4303CF-EEC9-4107-B507-0F530DA0C833},2025/02/28 21:50:13+00,2025/02/28 21:54:16+00,,20698
-8566984.2806676,4709957.07361723,ABRA-118815,"R & L Bubbles, LLC",R & L Bubbles,B,3521 V STREET NE,20018,Ward 5,ANC 5C,SMD 5C04,Active,Internet,,,,,,,,,,CHECKED,,,,,,,,2026/09/30 04:00:00+00,,403596.62,138922.41,-76.95852691,38.91816378,33519,ABCALicenseePt_20699,{E23ED8F9-AA23-4642-8767-E4B41C2B7CE2},2025/02/28 21:50:13+00,2025/02/28 21:54:16+00,,20699
-8566984.2806676,4709957.07361723,ABRA-119440,Nomad Wino LLC,6ft Wine Club,B,3521 V STREET NE,20018,Ward 5,ANC 5C,SMD 5C04,Active,Internet,,,,,,,,,,CHECKED,,,,,,,,2026/09/30 04:00:00+00,,403596.62,138922.41,-76.95852691,38.91816378,33519,ABCALicenseePt_20700,{7A05869F-857C-460F-A4FC-51A0848A4210},2025/02/28 21:50:13+00,2025/02/28 21:54:16+00,,20700
-8566984.2806676,4709957.07361723,ABRA-126948,"House of DC, LLC","House of DC, LLC",A,3521 V STREET NE,20018,Ward 5,ANC 5C,SMD 5C04,Active,Wholesaler,,,,,,,,,,,,,,,,,,2027/03/31 04:00:00+00,,403596.62,138922.41,-76.95852691,38.91816378,33519,ABCALicenseePt_20701,{067C4C50-7EA9-4F27-AA8F-674C7CCEF272},2025/02/28 21:50:13+00,2025/02/28 21:54:16+00,,20701
-8566984.2806676,4709957.07361723,ABRA-127494,"G4 DC Fine Wines, Inc.",Gordon's Fine Wines of DC,A,3521 V STREET NE,20018,Ward 5,ANC 5C,SMD 5C04,Active,Internet,,,,,,,,,,,,,,,,,,2027/03/31 04:00:00+00,,403596.62,138922.41,-76.95852691,38.91816378,33519,ABCALicenseePt_20702,{D0C1837B-B0D4-400B-92CB-4CEFD30611F6},2025/02/28 21:50:13+00,2025/02/28 21:54:16+00,,20702
-8566984.2806676,4709957.07361723,ABRA-128136,"Hedon State, LLC",Hedon State,B,3521 V STREET NE,20018,Ward 5,ANC 5C,SMD 5C04,Active,Wholesaler,,,,,,CHECKED,,,,,,,,,,,,2026/09/30 04:00:00+00,,403596.62,138922.41,-76.95852691,38.91816378,33519,ABCALicenseePt_20703,{65765A9B-BC5A-4230-ADC6-1C9FA88E12E7},2025/02/28 21:50:13+00,2025/02/28 21:54:16+00,,20703
-8566984.2806676,4709957.07361723,ABRA-128434,Weekend Wine LLC,Weekend Wine,B,3521 V STREET NE,20018,Ward 5,ANC 5C,SMD 5C04,Active,Internet,,,,,,,,,,,,,,,,,,2026/09/30 04:00:00+00,,403596.62,138922.41,-76.95852691,38.91816378,33519,ABCALicenseePt_20704,{8C390D2C-45DF-400C-9B37-FB9381D5E96F},2025/02/28 21:50:13+00,2025/02/28 21:54:16+00,,20704
-8566984.2806676,4709957.07361723,ABRA-128748,"Petrullo Wine Company, LLC",Petrullo Wine Company,A,3521 V STREET NE,20018,Ward 5,ANC 5C,SMD 5C04,Active,Internet,,,,,,,,,,,,,,,,,,2027/03/31 04:00:00+00,,403596.62,138922.41,-76.95852691,38.91816378,33519,ABCALicenseePt_20705,{D68349F4-3401-4359-9686-FE305AA0FF02},2025/02/28 21:50:13+00,2025/02/28 21:54:16+00,,20705
-8571257.34469718,4710521.65875989,ABRA-122873,Habanero Group LLC,Alegria Bar,C,670 RHODE ISLAND AVENUE NE,20002,Ward 5,ANC 5F,SMD 5F03,Active,Tavern,,,,,,,,,,,,,28,,,CHECKED,,2025/09/30 04:00:00+00,28,400267.74,139359.63,-76.99691248,38.92210939,334796,ABCALicenseePt_20706,{80490868-E7DB-4E4A-8224-43DEDD61FFD7},2025/02/28 21:50:13+00,2025/02/28 21:54:16+00,,20706
-8571257.34469718,4710521.65875989,ABRA-123918,"M & Amalia's Kitchen, Inc.",Taqueria Habanero #3,C,670 RHODE ISLAND AVENUE NE,20002,Ward 5,ANC 5F,SMD 5F03,Active,Tavern,,,,,,,,,,,,,4,,,CHECKED,,2025/09/30 04:00:00+00,4,400267.74,139359.63,-76.99691248,38.92210939,334796,ABCALicenseePt_20707,{51F9ECED-3CF9-40E0-B7B1-5F51658E1289},2025/02/28 21:50:13+00,2025/02/28 21:54:16+00,,20707
-8571257.34469718,4710521.65875989,ABRA-126717,"Doki Doki BBQ, LLC",Doki Doki BBQ,C,670 RHODE ISLAND AVENUE NE,20002,Ward 5,ANC 5F,SMD 5F03,About to Expire,Restaurant,,,,,,,,,,,,,99,,,,,2025/03/31 04:00:00+00,99,400267.74,139359.63,-76.99691248,38.92210939,334796,ABCALicenseePt_20708,{64EF554A-0291-46F8-855E-6D6A337B2AD3},2025/02/28 21:50:13+00,2025/02/28 21:54:16+00,,20708
-8571349.04156696,4710464.65146439,ABRA-117857,"Hospitality in Transit, LLC",Metrobar,C,640 RHODE ISLAND AVENUE NE,20002,Ward 5,ANC 5F,SMD 5F03,Active,Tavern,,CHECKED,,,CHECKED,,,,,,,,499,,,,,2025/09/30 04:00:00+00,499,400196.31,139315.4,-76.9977362114698,38.9217109666826,334795,ABCALicenseePt_20709,{58DB1B12-6459-4592-AA1E-85D13B0AD04B},2025/02/28 21:50:13+00,2025/02/28 21:54:16+00,,20709
-8580260.43757221,4713234.38846745,ABRA-128816,"JKD International, LLC",Shinwa Izakaya,C,11 RIDGE SQUARE NW,20016,Ward 3,ANC 3A,SMD 3A01,About to Expire,Restaurant,,,,,,,,,,,,,69,,,CHECKED,,2025/03/31 04:00:00+00,69,393256.2,141466.83,-77.07778862,38.94106585,334724,ABCALicenseePt_20710,{364090EE-4CEF-45AD-B293-EC54FEC64302},2025/02/28 21:50:13+00,2025/02/28 21:54:16+00,,20710
-8580235.91351393,4713220.80744333,ABRA-124751,"KSOB City Ridge, LLC",King Street Oyster Bar,C,7 RIDGE SQUARE NW,20016,Ward 3,ANC 3A,SMD 3A01,About to Expire,Restaurant,,,,,,,,,,,,,210,,,,,2025/03/31 04:00:00+00,,393275.29,141456.28,-77.07756831,38.94097096,334723,ABCALicenseePt_20711,{98F3FB0A-8D15-4B56-9D4F-3ECA4FF1FFA4},2025/02/28 21:50:13+00,2025/02/28 21:54:16+00,,20711
-8574736.23848708,4718248.84591182,ABRA-122966,"Whole Foods Market Group, Inc. .",Whole Foods Market,B,7130 12TH STREET NW,20012,Ward 4,ANC 4A,SMD 4A03,Active,Retail - Full Service Grocery,,,,,,CHECKED,,,,,,,,,,,,2026/09/30 04:00:00+00,,397559.56,145352.71,-77.02816391,38.97609335,334710,ABCALicenseePt_20712,{524E1B57-3CDA-48A0-94FF-49FA36E7BE33},2025/02/28 21:50:13+00,2025/02/28 21:54:16+00,,20712
-8574736.23848708,4718248.84591182,ABRA-122967,"Whole Foods Market Group, Inc. .",Whole Foods Market,D,7130 12TH STREET NW,20012,Ward 4,ANC 4A,SMD 4A03,About to Expire,Restaurant,,,,,,,,,,,,,439,,,,,2025/03/31 04:00:00+00,,397559.56,145352.71,-77.02816391,38.97609335,334710,ABCALicenseePt_20713,{AED9627B-5AA7-47BB-BFEC-84F66A0B0A10},2025/02/28 21:50:13+00,2025/02/28 21:54:16+00,,20713
-8575090.23972119,4707080.7027167,ABRA-122175,"La Grande Boucherie DC, LLC",La Grande Boucherie,C,699 14TH STREET NW,20005,Ward 2,ANC 2C,SMD 2C01,About to Expire,Restaurant,,,,,,,,,,,,,476,,,CHECKED,,2025/03/31 04:00:00+00,451,397281.03,136690.06,-77.03134396,38.89805682,334459,ABCALicenseePt_20714,{6A9863A1-F5E9-4399-A242-9885EAC9F7E6},2025/02/28 21:50:13+00,2025/02/28 21:54:16+00,,20714
-8575090.23972119,4707080.7027167,ABRA-122181,"Washoku Room DC, LLC",Washoku Room,C,699 14TH STREET NW,20005,Ward 2,ANC 2C,SMD 2C01,About to Expire,Restaurant,,,,,,,,,,,,,50,,,CHECKED,,2025/03/31 04:00:00+00,,397281.03,136690.06,-77.03134396,38.89805682,334459,ABCALicenseePt_20715,{7195959D-1BF6-4107-A6BA-2E3A1BB31AC6},2025/02/28 21:50:13+00,2025/02/28 21:54:16+00,,20715
-8575090.23972119,4707080.7027167,ABRA-122182,"Olio DC, LLC",Olio e Piu,C,699 14TH STREET NW,20005,Ward 2,ANC 2C,SMD 2C01,About to Expire,Restaurant,,,,,,,,,,,,,177,,,CHECKED,,2025/03/31 04:00:00+00,147,397281.03,136690.06,-77.03134396,38.89805682,334459,ABCALicenseePt_20716,{0DAEBC14-DD56-4BF4-9EA2-ECF33B4A0471},2025/02/28 21:50:13+00,2025/02/28 21:54:16+00,,20716
-8574111.40794392,4704009.95004703,ABRA-120887,Oasis Marina LLC,Oasis Marinas,B,658 WHARF STREET SW,20024,Ward 6,ANC 6D,SMD 6D01,Active,Beer and Wine,,,,,,,,,,,,,,,,,,2026/09/30 04:00:00+00,,398043.2,134306.31,-77.02255097,38.87658513,334016,ABCALicenseePt_20717,{8D18E91F-323E-4D0F-BB92-79B1702FAA2A},2025/02/28 21:50:13+00,2025/02/28 21:54:16+00,,20717
-8573983.36748681,4704086.22581414,ABRA-124023,"Azzouz Hospitality, LLC",ZOOZ,C,636 MAINE AVENUE SW,20024,Ward 6,ANC 6D,SMD 6D06,Active,Tavern,,,,,,,,,,,,,189,,,CHECKED,,2025/09/30 04:00:00+00,189,398143.02,134365.5,-77.02140076,38.87711855,331638,ABCALicenseePt_20718,{57E7530E-1B89-477E-A9A8-3E4D89E4C0F7},2025/02/28 21:50:13+00,2025/02/28 21:54:16+00,,20718
-8580267.000817,4713160.84213138,ABRA-124582,"The Mina Group, LLC",Rooftop Kitchen at City Ridge,C,14 RIDGE SQUARE NW,20016,Ward 3,ANC 3A,SMD 3A01,About to Expire,Restaurant,,,,,CHECKED,,,,,,,,203,,,CHECKED,,2025/03/31 04:00:00+00,203,393251.04,141409.79,-77.07784758,38.94055197,331636,ABCALicenseePt_20719,{52507361-A575-4B61-80B0-55AEFBCFAE5F},2025/02/28 21:50:13+00,2025/02/28 21:54:16+00,,20719
-8580169.21047072,4713102.53413055,ABRA-116841,"Wegmans Food Markets, Inc.",Wegmans,A,41 RIDGE SQUARE NW,20016,Ward 3,ANC 3A,SMD 3A01,Active,Retail - Liquor Store,,,,,,CHECKED,,,,,,,,,,,,2027/03/31 04:00:00+00,,393327.16,141364.5,-77.07696911,38.94014457,331634,ABCALicenseePt_20720,{8E28EEA8-078D-4FD9-B20D-068AF9455905},2025/02/28 21:50:13+00,2025/02/28 21:54:16+00,,20720
-8574031.20563124,4704027.11467674,ABRA-121216,"Philippe DC, LLC",Philippe by Philippe Chow/ Merchants Marina,C,635 WHARF STREET SW,20024,Ward 6,ANC 6D,SMD 6D06,About to Expire,Restaurant,,CHECKED,,,CHECKED,,,CHECKED,CHECKED,,,,266,,,CHECKED,,2025/03/31 04:00:00+00,266,398105.72,134319.62,-77.0218305,38.87670517,331631,ABCALicenseePt_20721,{53389ADB-CDD2-4938-8954-584BAA73C7CD},2025/02/28 21:50:13+00,2025/02/28 21:54:16+00,,20721
-8580075.77788562,4713095.16081616,ABRA-125203,"PYM Holdings, LLC",Taco Bamba,C,3930 WISCONSIN AVENUE NW,20016,Ward 3,ANC 3A,SMD 3A01,About to Expire,Restaurant,,,,,CHECKED,,,,,,,,121,,,CHECKED,,2025/03/31 04:00:00+00,121,393399.92,141358.72,-77.07612979,38.94009305,331627,ABCALicenseePt_20722,{EE69A317-AF15-4EE9-872D-5D74BB43E224},2025/02/28 21:50:13+00,2025/02/28 21:54:16+00,,20722
-8574100.04767855,4704035.08434378,ABRA-121424,GRNA HK of DC LLC,Hell's Kitchen,C,652 WHARF STREET SW,20024,Ward 6,ANC 6D,SMD 6D01,About to Expire,Restaurant,,CHECKED,,,CHECKED,,,,,,,,536,,,CHECKED,,2025/03/31 04:00:00+00,536,398052.06,134325.82,-77.02244891,38.8767609,331613,ABCALicenseePt_20723,{633A52EF-0F8E-4614-BFE5-62380EAA05C0},2025/02/28 21:50:13+00,2025/02/28 21:54:16+00,,20723
-8574097.04653317,4704038.47288034,ABRA-021949,Frager Enterprises Inc.,Nightingale II,C,650 WHARF STREET SW,20024,Ward 6,ANC 6D,SMD 6D01,About to Expire,Marine Vessel,,,,,,,,,,,,,,,,,,2025/03/31 04:00:00+00,,398054.4,134328.45,-77.02242196,38.8767846,331610,ABCALicenseePt_20724,{6CAB00B6-2CF2-470D-A107-C7B8FF9F1CD0},2025/02/28 21:50:13+00,2025/02/28 21:54:16+00,,20724
-8574097.04653317,4704038.47288034,ABRA-021949-2,Frager Enterprises Inc.,Nightingale,C,650 WHARF STREET SW,20024,Ward 6,ANC 6D,SMD 6D01,About to Expire,Marine Vessel,,,,,,,,,,,,,68,,,,,2025/03/31 04:00:00+00,68,398054.4,134328.45,-77.02242196,38.8767846,331610,ABCALicenseePt_20725,{6EF1FCD0-DB91-4EC5-A242-791689B880C1},2025/02/28 21:50:13+00,2025/02/28 21:54:16+00,,20725
-8574079.89179658,4704081.29481074,ABRA-121799,BarTaco Wharf LLC,Bartaco Wharf,C,645 WHARF STREET SW,20024,Ward 6,ANC 6D,SMD 6D01,About to Expire,Restaurant,,,,,CHECKED,,,,,,,,264,,,CHECKED,,2025/03/31 04:00:00+00,264,398067.78,134361.69,-77.02226785,38.87708407,331609,ABCALicenseePt_20726,{223084FF-172B-4097-B294-031AF691CFE0},2025/02/28 21:50:13+00,2025/02/28 21:54:16+00,,20726
-8574120.2366499,4704123.61324301,ABRA-121423,GRNA FC of DC LLC,Gordon Ramsay Fish & Chips,D,665 WHARF STREET SW,20024,Ward 6,ANC 6D,SMD 6D01,About to Expire,Restaurant,,,,,CHECKED,,,,,,,,118,,,CHECKED,,2025/03/31 04:00:00+00,118,398036.34,134394.55,-77.02263028,38.87738001,331608,ABCALicenseePt_20727,{F0BF5D01-027C-4465-B952-56B4B50BA630},2025/02/28 21:50:13+00,2025/02/28 21:54:16+00,,20727
-8574141.21669688,4704141.80951958,ABRA-121405,"Wharf LB, LLC",Lucky Buns,C,675 WHARF STREET SW,20024,Ward 6,ANC 6D,SMD 6D01,Active,Tavern,,CHECKED,,,CHECKED,,,,,,,,208,,,CHECKED,,2025/09/30 04:00:00+00,208,398019.99,134408.68,-77.02281874,38.87750726,331606,ABCALicenseePt_20728,{C28F6C79-2D20-45BA-9619-F4DC39F21875},2025/02/28 21:50:13+00,2025/02/28 21:54:16+00,,20728
