X,Y,NAME,ADDRESS,LICENSE_NUMBER,LICENSE_TYPE,LICENSE_ISSUE_DATE,LICENSE_EXPIRATION_DATE,WARD,ZIPCODE,CONTACT_TYPE,EMAIL,PHONE,FAX_NUMBER,START_TIME,END_TIME,POINT_OF_CONTACT,OTHER_CONTACT_DESCRIPTION,C_O_HO_PERMIT_ISSUED_DATE,FIRE_INSPECTION_DATE,NUMBER_OF_INFANTS,NUMBER_OF_PRESCHOOL_CHILDREN,NUMBER_OF_TODDLERS,NUM_OF_SCHOOL_AGE_CHILDREN,AUTHORIZED_CAPACITY,INSPECTOR_ASSIGNED,LATITUDE,LONGITUDE,XCOORD,YCOORD,MAR_MATCHADDRESS,MARID,OBJECTID
-8570415.78952222,4710460.20284775,Israel Baptist Church CDC,"1251 Saratoga AVE, NE ",CDC-908823,Full License,2024/01/26 05:00:00+00,2026/10/31 04:00:00+00,5,20018,Center Director,imi.icdcadm@gmail.com,(202) 269-5090,,,,Keysha Nelson,,2005/03/17 04:00:00+00,2023/09/27 04:00:00+00,8,21,24,44,97,jazmin.hunt@dc.gov,38.92168021,-76.98935267,400923.31,139312,1251 SARATOGA AVENUE NE,69666,136926
-8578835.66003323,4708428.65673969,St. John's Episcopal Preschool,"3240  O ST, NW ",CDC-908830,Full License,2023/11/03 04:00:00+00,2026/10/31 04:00:00+00,2,20007,Center Director,mmcsherry@stjohnsdc.org,(202) 338-2574,,,,Emily McSherry,,2007/03/02 05:00:00+00,2024/06/20 04:00:00+00,0,30,15,0,45,candia.faison@dc.gov,38.90748044,-77.06498963,394363.14,137737.66,3240 O STREET NW,272132,136927
-8579514.20684387,4708578.55251925,Georgetown University Hoya Kids,"3624  P ST, NW ",CDC-908900,Full License,2024/07/01 04:00:00+00,2027/07/31 04:00:00+00,2,20007,Center Director,hoyakids@georgetown.edu,(202) 687-7667,,,,Jane Banister,,1997/09/04 04:00:00+00,2024/09/19 04:00:00+00,0,42,18,0,60,Zulieka.Crawford@dc.gov,38.90852825,-77.07108512,393834.54,137854.37,3624 P STREET NW,302550,136928
-8570680.90712774,4699276.5610034,Tucker's Child Development Center I,"3215 11th PL, SE ",CDC-908958,Full License,2024/09/24 04:00:00+00,2026/12/31 05:00:00+00,8,20032,Owner/Director,berthatucker1@comcast.net,(202) 562-0703,,,,Bertha Tucker,,2008/11/06 05:00:00+00,2024/01/04 05:00:00+00,6,16,18,15,55,candia.faison@dc.gov,38.84347503,-76.99173426,400717.57,130630.64,3215 11TH PLACE SE,38378,140001
-8574964.21599204,4706634.8381359,Triangle Tots Child Development Center/Bright Horizons,"1300 Pennsylvania AVE, NW ",CDC-908998,Full License,2024/04/26 04:00:00+00,2027/03/31 04:00:00+00,2,20004,Center Director,triangletots@brighthorizons.com,(202) 565-3018,,,,Briauna Teasley,,,2024/10/23 04:00:00+00,24,30,52,14,120,kimberly.handon-lindsey@dc.gov,38.89493993,-77.03021187,397379.12,136343.99,1300 PENNSYLVANIA AVENUE NW,293198,140002
-8570149.18042651,4698171.26991443,Kids Are Us Learning Center,"1236  Southern AVE, SE ",CDC-909072,Full License,2024/10/24 04:00:00+00,2026/10/31 04:00:00+00,8,20032,Owner/Director,Lynitakaulc@aol.com,(202) 561-0290,,,,Lynita Law-Reid,,2004/10/25 04:00:00+00,2024/07/15 04:00:00+00,8,32,20,0,60,Makia.Tabourn@dc.gov,38.83574129,-76.98695768,401132.36,129772.19,1236 SOUTHERN AVENUE SE,289853,140003
-8563616.41702769,4708074.40697982,Community Educational Research Group,"1105  50th ST, NE ",CDC-909087,Restricted,2025/02/18 05:00:00+00,2025/05/18 04:00:00+00,7,20019,Owner/Director,cerg_antioch@commresh.com,(202) 397-8754,,,,Valerie Moore-Credit,,2010/03/02 05:00:00+00,2023/08/14 04:00:00+00,0,40,20,40,100,ronica.milledge1@dc.gov,38.90500406,-76.92827289,406221.45,137463.2,1105 50TH STREET NE,74277,140004
-8575330.14279297,4712824.39107785,Growing Seeds Child Development Center,"3800 14th ST, NW ",CDC-909093,Full License,2024/02/21 05:00:00+00,2026/12/31 05:00:00+00,4,20011,Center Director,GROWINGS50@HOTMAIL.COM,(202) 726-5208,,,,Nicki Sanders,,2020/02/07 05:00:00+00,2024/03/13 04:00:00+00,8,10,22,10,50,stephanie.tindal@dc.gov,38.93820146,-77.03349904,397095.72,141146.48,3800 14TH STREET NW,259018,140005
-8579688.39612329,4715847.88391349,Montessori School Of Chevy Chase,"5312  Connecticut AVE, NW ",CDC-909135,Full License,2024/04/12 04:00:00+00,2027/03/31 04:00:00+00,3,20015,Center Director,info@chevychasemontessori.com,(202) 362-6212,,,,Marlene Cherry,,2004/08/13 04:00:00+00,2024/02/07 05:00:00+00,0,42,16,0,58,yesset.makonnen@dc.gov,38.9593244,-77.07264988,393703.31,143493.29,5312 CONNECTICUT AVENUE NW,301282,140006
-8574656.60577467,4716592.20967367,Bridges Babies,"6127 Georgia AVE, NW ",CDC-909152,Full License,2024/07/11 04:00:00+00,2026/11/30 05:00:00+00,4,20011,Owner/Director,bridgesacademydc@gmail.com,(202) 829-1901,,,,C. Lillette Campbell,,2000/06/22 04:00:00+00,2024/03/27 04:00:00+00,12,0,16,0,28,kanell.johnson@dc.gov,38.96452349,-77.02744855,397621.16,144068.29,6127 GEORGIA AVENUE NW,276394,140007
-8574989.56533572,4707270.21502805,Bidkids Child Development Center,"1300  New York AVE, NW ",CDC-909162,Full License,2023/09/29 04:00:00+00,2026/09/30 04:00:00+00,2,20577,Center Director,RUTHR@IADB.ORG,(202) 623-3600,,,,Ruth Roman,,2017/01/26 05:00:00+00,2024/09/16 04:00:00+00,16,36,36,0,88,Makia.Tabourn@dc.gov,38.89938174,-77.03043958,397359.53,136837.11,1300 NEW YORK AVENUE NW,242919,140008
-8571170.57566223,4699632.50144236,Dawn To Dusk Child Development Center,657 Lebaum ST. SE ,CDC-909165,Full License,2023/08/18 04:00:00+00,2026/08/31 04:00:00+00,8,20032,Center Director,zmccraw@dawntoduskdc.com,(202) 562-6196,,,,Zabrina McCraw,,2020/08/18 04:00:00+00,2024/08/07 04:00:00+00,0,40,8,0,48,stephanie.tindal@dc.gov,38.84596571,-76.99613303,400335.69,130907.06,657 LEBAUM STREET SE,1206,140009
-8576361.66396561,4707501.02257279,World Bank Children's Center,"1850  I ST, NW ",CDC-909176,Full License,2024/03/01 05:00:00+00,2027/02/28 05:00:00+00,2,20433,Center Director,Kzieleniewski@worldbank.org,(202) 473-7010,,,,Katarzyna Teodozja Zieleniewski,,2010/10/01 04:00:00+00,2024/02/13 05:00:00+00,16,20,32,0,68,yesset.makonnen@dc.gov,38.90099566,-77.04276535,396290.42,137016.66,1850 I STREET NW,240965,140010
-8572973.91497391,4715424.07819442,"Loving Care Day Nursery, Inc.","114  Kennedy ST, NW ",CDC-909178,Full License,2023/10/02 04:00:00+00,2026/10/31 04:00:00+00,4,20011,Center Director,lovingcare114@gmail.com,(202) 882-5716,,,,Luzbella Nogar,,1999/12/15 05:00:00+00,2024/02/27 05:00:00+00,8,18,36,0,62,yesset.makonnen@dc.gov,38.95636362,-77.01233269,398931.06,143162.22,114 KENNEDY STREET NW,289381,140011
-8575876.25015102,4719497.3752565,Lowell School Inc,"1640 Kalmia RD, NW ",CDC-909347,Full License,2024/03/04 05:00:00+00,2026/12/31 05:00:00+00,4,20012,Center Director,nsviedrys@lowellschool.org,(202) 577-2000,,,,Nathalie Sviedrys,,1999/09/08 04:00:00+00,2023/09/13 04:00:00+00,0,59,16,0,75,kimberly.handon-lindsey@dc.gov,38.98481235,-77.0384048,396672.58,146320.89,1640 KALMIA ROAD NW,302442,140012
-8576093.25609195,4707590.28888492,Children First Inc. Of Washington DC,"1725 Eye ST, NW ",CDC-909441,Full License,2024/01/08 05:00:00+00,2026/12/31 05:00:00+00,2,20006,Center Director,dominick.fields@brighthorizons.com,(202) 466-6088,,,,Dominick Fields,,2001/10/02 04:00:00+00,2024/12/02 05:00:00+00,6,10,8,15,39,jazmin.hunt@dc.gov,38.90161972,-77.0403542,396499.6,137085.84,1725 I STREET NW,279349,140013
-8578840.94029768,4714153.28534222,The Franklin Montessori School,"4473 Connecticut  AVE, NW ",CDC-909495,Full License,2023/09/30 04:00:00+00,2026/09/30 04:00:00+00,3,20008,Center Director,director@franklinmontessori.com ,(202) 966-7747,,,,Mary Akatu-Speakman,,2012/08/13 04:00:00+00,2024/04/22 04:00:00+00,42,132,42,0,216,Makia.Tabourn@dc.gov,38.94748592,-77.06503706,394362.19,142178.65,4473 CONNECTICUT AVENUE NW,284925,140014
-8577085.49854768,4709621.15094824,"Kids Corner Daycare, Inc","2200  California ST, NW ",CDC-909531,Full License,2023/11/01 04:00:00+00,2026/11/30 05:00:00+00,2,20008,Center Director,kidscornerdcc@yahoo.com,(202) 797-1555,,,,Ingrid Elizabeth Ortega Perez,,2003/06/10 04:00:00+00,2024/08/26 04:00:00+00,14,42,24,0,80,yesset.makonnen@dc.gov,38.91581589,-77.04926767,395727.28,138662.11,2200 CALIFORNIA STREET NW,235042,140015
-8569751.50389451,4705191.58352065,Board Of Child Care,"308 15th ST, SE ",CDC-909552,Full License,2024/03/06 05:00:00+00,2026/02/28 05:00:00+00,7,20003,Center Director,mramirez@BoardofChildCare.org,(202) 291-3330,,,,Mayra Ramirez,,2018/03/23 04:00:00+00,2025/03/06 05:00:00+00,23,48,56,0,127,kanell.johnson@dc.gov,38.88484859,-76.98338529,401441.53,135223.47,308 15TH STREET SE,289433,140016
-8573479.91281145,4709141.50656825,Home Away From Home,"414  R ST, NW ",CDC-909575,Full License,2024/08/12 04:00:00+00,2026/12/31 05:00:00+00,5,20001,Owner/Director,hafhcdc15@gmail.com,(202) 986-4626,,,,Dorothy  Council,,2007/09/13 04:00:00+00,2023/10/18 04:00:00+00,10,40,10,0,60,jazmin.hunt@dc.gov,38.91246299,-77.01687815,398536.18,138288.93,414 R STREET NW,237354,140017
-8576086.56407697,4710905.32529057,David's Stars Child Development Center,"2711 Ontario RD, NW ",CDC-909576,Full License,2023/10/30 04:00:00+00,2026/10/31 04:00:00+00,1,20009,Owner/Director,davidstarscdc@gmail.com,(202) 891-9863,,,,Maria Naranjo Arias,,2004/04/07 04:00:00+00,2024/02/14 05:00:00+00,8,16,7,0,31,candia.faison@dc.gov,38.92479108,-77.04029409,396505.95,139658.05,2711 ONTARIO ROAD NW,235943,140018
-8571919.16007214,4705944.43958718,River Park Nursery School,"212  East Capitol ST, NE ",CDC-909590,Full License,2023/11/09 05:00:00+00,2026/10/31 04:00:00+00,6,20003,Other,erinecrouse@gmail.com,(202) 546-7767,,,,Erin Crouse,owner,2013/08/12 04:00:00+00,2023/08/31 04:00:00+00,0,15,0,0,15,kimberly.handon-lindsey@dc.gov,38.89011279,-77.00285767,399752.08,135807.71,212 EAST CAPITOL STREET NE,286648,140019
-8574666.53966661,4716608.52149295,Quickie Becky Child Care Dev,"6135  Georgia AVE, NW ",CDC-909622,Full License,2024/03/27 04:00:00+00,2027/02/28 05:00:00+00,4,20011,Center Director,beckyyilma@hotmail.com,(202) 882-1722,,,,Bekelech Yilma Delelegne,,2008/10/03 04:00:00+00,2024/01/18 05:00:00+00,21,83,72,0,176,Zulieka.Crawford@dc.gov,38.96463743,-77.02753779,397613.43,144080.94,6135 GEORGIA AVENUE NW,302600,140020
-8573988.9519694,4713479.20772942,Chantelle's Quality Child Care Center,"4221 7TH ST, NW ",CDC-909640,Full License,2024/03/04 05:00:00+00,2027/02/28 05:00:00+00,4,20011,Owner/Director,javonne332000@yahoo.com,(202) 291-0002,,,,Javonne Haynes,,2011/07/20 04:00:00+00,2024/09/16 04:00:00+00,4,13,20,13,50,Makia.Tabourn@dc.gov,38.94277672,-77.02145092,398140.38,141654.06,4221 7TH STREET NW,247500,140021
-8576832.67944626,4712096.37744162,Rosemount Center,"2000  Rosemount AVE, NW ",CDC-909649,Full License,2024/02/29 05:00:00+00,2026/12/31 05:00:00+00,1,20010,Center Director,croberts-njoku@rosemountcenter.com,(202) 265-9885,,,,Cornett Njoku,,2010/01/13 05:00:00+00,2022/06/28 04:00:00+00,18,89,56,0,163,jazmin.hunt@dc.gov,38.93311442,-77.04699655,395925.23,140582.29,2000 ROSEMOUNT AVENUE NW,234873,140022
-8564113.66984097,4704351.94453711,First Rock Baptist Child Development Center,"4638  H ST, SE ",CDC-909658,Full License,2024/04/22 04:00:00+00,2026/09/30 04:00:00+00,7,20019,Center Director,FRBCCDC@YAHOO.COM,(202) 575-5859,,,,Patricia Bodrick,,2006/09/11 04:00:00+00,2025/02/20 05:00:00+00,16,16,48,24,104,Makia.Tabourn@dc.gov,38.87897678,-76.93273978,405836.13,134573.71,4638 H STREET SE,300715,140023
-8570184.58669177,4707095.00530686,Northeast Stars Montessori Learning,"1325  Maryland AVE, NE ",CDC-909661,Full License,2025/03/04 05:00:00+00,2027/02/28 05:00:00+00,6,20002,Center Director,northeaststarsmontessori.nes@gmail.com,(615) 540-3166,,,,Angelica Jimenez,,2008/06/11 04:00:00+00,2024/02/28 05:00:00+00,0,26,12,0,38,Makia.Tabourn@dc.gov,38.89815715,-76.98727574,401103.78,136700.77,1325 MARYLAND AVENUE NE,67591,140024
-8575559.3326311,4711555.83834636,Bell Teen Parent & Child Development,"3101 16th ST, NW ",CDC-909670,Full License,2023/10/25 04:00:00+00,2026/10/31 04:00:00+00,1,20010,Center Director,BELL6TO30@gmail.com,(202) 939-7700 x5099,,,,Ana Ayala,,2006/11/01 04:00:00+00,2024/03/18 04:00:00+00,20,12,12,0,44,candia.faison@dc.gov,38.92933679,-77.03555789,396916.84,140162.53,3101 16TH STREET NW,234375,140025
-8567879.60101143,4711591.91967,Friendship Public Charter School @ Woodridge,"2959  Carlton  AVE, NE ",CDC-909672,Full License,2024/01/31 05:00:00+00,2027/01/31 05:00:00+00,5,20018,Other,Acampbell@friendshipschools.org,(202) 355-2739,,,,Jackson Campbell,Compliance Manager,2004/08/31 04:00:00+00,2023/07/19 04:00:00+00,0,50,0,125,175,yesset.makonnen@dc.gov,38.92958893,-76.96656971,402898.67,140190.45,2959 CARLTON AVENUE NE,42808,140026
-8570131.88388683,4704410.2693796,Friendship Public Charter School @ Chamberlain,"1345 Potomac AVE, SE ",CDC-909673,Full License,2023/08/04 04:00:00+00,2026/07/31 04:00:00+00,6,20003,Other,Acampbell@friendshipschools.org,(202) 281-1714,,,,Jackson Campbell,Compliance Director,2004/08/31 04:00:00+00,2023/03/14 04:00:00+00,0,40,0,135,175,Makia.Tabourn@dc.gov,38.87938499,-76.9868023,401145.15,134616.92,1345 POTOMAC AVENUE SE,66334,140027
-8571176.2963738,4699597.1961934,Dawn To Dusk Child Development Center II,"2907  7TH  ST, SE ",CDC-909675,Full License,2023/08/18 04:00:00+00,2026/08/31 04:00:00+00,8,20032,Center Director,zmccraw@dawntoduskdc.com,(202) 562-6196,,,,Zabrina McCraw,,2021/06/17 04:00:00+00,2024/08/07 04:00:00+00,7,12,28,0,47,stephanie.tindal@dc.gov,38.84571836,-76.99618442,400331.23,130879.64,2907 7TH STREET SE,43568,140028
-8570024.62544128,4702445.8472634,St. Philip's Child Development Center,"2001 14th ST, SE ",CDC-909677,Full License,2024/04/08 04:00:00+00,2026/10/31 04:00:00+00,8,20020,Center Director,cpowell@stphilipscdc.org,(202) 678-1640,,,,Crystal L. Powell,,2007/04/26 04:00:00+00,2024/10/04 04:00:00+00,16,55,24,0,95,Makia.Tabourn@dc.gov,38.86564625,-76.98583879,401228.99,133091.83,2001 14TH STREET SE,53134,140029
-8575691.96557211,4713539.45409262,Amazing Life Games Preschool,"4300 16th ST, NW ",CDC-909678,Full License,2024/03/05 05:00:00+00,2026/10/31 04:00:00+00,4,20011,Center Director,director@amazinglifegames.org,(202) 265-0114,,,,Carlos Duque,,2012/07/17 04:00:00+00,2023/09/07 04:00:00+00,0,20,15,0,35,kimberly.handon-lindsey@dc.gov,38.94319765,-77.03674935,396814.15,141701.21,4300 16TH STREET NW,258561,140030
-8574117.04863219,4707271.22982186,"Milestones Enrichment Center, Inc.","755  8th ST, NW ",CDC-909684,Full License,2023/11/21 05:00:00+00,2026/10/31 04:00:00+00,2,20001,Center Director,mec123abc@verizon.net,(202) 628-5683,,,,Raechell Redmond,,2010/02/04 05:00:00+00,2024/07/09 04:00:00+00,7,19,20,0,46,stephanie.tindal@dc.gov,38.89938884,-77.02260164,398039.43,136837.7,755 8TH STREET NW,295164,140031
-8562570.74367995,4706792.3246652,"Rainbow Child Learning Center, Inc.","505  57th ST, NE ",CDC-909700,Full License,2023/12/15 05:00:00+00,2026/11/30 05:00:00+00,7,20019,Owner/Director,rachellencrissy@aol.com,(202) 396-4112,,,,Crystal Hammond,,2019/06/06 04:00:00+00,2023/10/19 04:00:00+00,16,0,24,0,40,Makia.Tabourn@dc.gov,38.896041,-76.91887945,407037.1,136468.91,505 57TH STREET NE,14215,140032
-8574691.21542283,4716569.26817492,Bridges Early Childhood Academy,"6123 Georgia AVE, NW ",CDC-909705,Full License,2024/07/11 04:00:00+00,2026/10/31 04:00:00+00,4,20011,Owner/Director,bridgesacademydc@gmail.com,(202) 829-1901,,,,C. Lillette Campbell,,2007/04/27 04:00:00+00,2024/03/27 04:00:00+00,0,21,24,0,45,kanell.johnson@dc.gov,38.96436292,-77.02775946,397594.21,144050.51,,813531,140033
-8580585.8746338,4713475.37204924,National Presbyterian Child Care Center,"4124  Van Ness ST, NW ",CDC-909710,Full License,2023/12/01 05:00:00+00,2026/11/30 05:00:00+00,3,20016,Center Director,Kjohnson@nps-dc.org,(202) 552-4237,,,,Krystal Johnson,,2007/09/04 04:00:00+00,2024/10/16 04:00:00+00,7,0,8,0,15,yesset.makonnen@dc.gov,38.94274959,-77.08071207,393002.92,141653.96,4124 VAN NESS STREET NW,301246,140034
-8580943.36486631,4716212.06749329,Friendship Children's Center # 2,"5411 Western AVE, NW ",CDC-909723,Full License,2024/06/13 04:00:00+00,2026/10/31 04:00:00+00,3,20015,Center Director,leah@friendshipchildren.org,(202) 244-5115,,,,Leah Potts,,2009/10/15 04:00:00+00,2024/10/23 04:00:00+00,0,32,12,0,44,Makia.Tabourn@dc.gov,38.96186793,-77.08392345,392726.47,143776.52,5411 WESTERN AVENUE NW,304108,140035
-8572066.29435926,4707007.29438389,The Harbor At Station Place,"100 F ST, NE ",CDC-909724,Full License,2023/09/29 04:00:00+00,2026/09/30 04:00:00+00,6,20549,Center Director,theharbor@brighthorizons.com,(202) 408-9271,,,,Aleshia Atchison,,2007/09/12 04:00:00+00,2024/02/27 05:00:00+00,24,40,24,0,88,kimberly.handon-lindsey@dc.gov,38.89754394,-77.0041794,399637.45,136632.63,100 F STREET NE,297732,140036
-8575235.90402482,4710969.83299481,AppleTree ELPCS Before And After Program,"2750 14th ST, NW ",CDC-909725,Full License,2024/08/28 04:00:00+00,2026/12/31 05:00:00+00,1,20009,Other,devon.tucker@appletreeinstitute.org,(202) 667-9490,,,,Devon Tucker,Operations & Compliance Specialist,2007/08/28 04:00:00+00,2024/04/02 04:00:00+00,0,108,0,0,108,candia.faison@dc.gov,38.92524156,-77.03265248,397168.6,139707.83,2750 14TH STREET NW,297626,140037
-8562031.24309821,4706627.98702622,Kids Are People Too CDC  II,"408  61st  ST, NE ",CDC-909740,Full License,2024/03/19 04:00:00+00,2027/01/31 05:00:00+00,7,20019,Center Director,kaptcdc@gmail.com,(202) 397-1099,,,,Ruth Thompson,,2008/04/03 04:00:00+00,2023/08/31 04:00:00+00,0,9,12,0,21,jazmin.hunt@dc.gov,38.89489203,-76.91403303,407457.64,136341.75,408 61ST STREET NE,288097,140038
-8579244.85275939,4716745.99488332,Broad Branch Children's House,"5608 Broad Branch RD, NW ",CDC-909748,Full License,2023/10/25 04:00:00+00,2026/10/31 04:00:00+00,3,20015,Center Director,msnatalie@bbchmontessori.com,(202) 232-2233,,,,Natalie Newell,,2013/08/20 04:00:00+00,2024/07/17 04:00:00+00,0,38,12,10,60,yesset.makonnen@dc.gov,38.9655973,-77.06866547,394049.17,144189.41,5608 BROAD BRANCH ROAD NW,263174,140039
-8573428.07015445,4716737.47031096,De Colores Learning Center,"6216-6218 3rd  ST, NW ",CDC-909751,Full License,2024/01/08 05:00:00+00,2027/01/31 05:00:00+00,4,20011,Owner/Director,florencia@decoloresdc.com,(202) 829-0320,,,,Florencia Del Villar,,2020/02/26 05:00:00+00,2024/01/07 05:00:00+00,4,0,32,0,36,yesset.makonnen@dc.gov,38.96553809,-77.01641243,398577.63,144180.69,6216 3RD STREET NW,285581,140040
-8578730.93860698,4712499.74685464,National Child Research Center,"3209 Highland PL, NW ",CDC-909760,Full License,2023/12/29 05:00:00+00,2026/12/31 05:00:00+00,3,20008,Center Director,swebb@ncrcpreschool.org,(202) 363-8777,,,,Susan Webb,,2018/09/06 04:00:00+00,2024/05/21 04:00:00+00,0,135,35,0,170,yesset.makonnen@dc.gov,38.9359327,-77.0640489,394446.95,140896.08,3209 HIGHLAND PLACE NW,221029,140041
-8571268.03871437,4699869.82244252,Friendship Public Charter School @ Milwaukee,"645 Milwaukee  PL, SE ",CDC-909765,Full License,2024/02/06 05:00:00+00,2027/01/31 05:00:00+00,8,20032,Other,Acampbell@friendshipschools.org,(202) 281-1714,,,,Jackson Campbell,Compliance Director,2007/12/10 05:00:00+00,2024/05/21 04:00:00+00,0,85,0,90,175,Makia.Tabourn@dc.gov,38.84762574,-76.99700856,400259.68,131091.37,645 MILWAUKEE PLACE SE,1655,140042
-8574590.19751082,4713257.86783684,Spanish Education Development Center,"4110  Kansas AVE, NW ",CDC-909775,Full License,2023/10/30 04:00:00+00,2026/10/31 04:00:00+00,4,20011,Center Director,MARTHAEGAS@SEDCENTER.ORG,(202) 722-4404,,,,Martha Egas,,2014/10/28 04:00:00+00,2024/11/13 05:00:00+00,32,109,25,20,186,kimberly.handon-lindsey@dc.gov,38.9412299,-77.026852,397672.1,141482.51,4110 KANSAS AVENUE NW,223667,140043
-8564029.47013819,4707915.26915972,Grandma's Hands Daycare,"1024 49th ST, NE ",CDH-910248,Full License,2023/11/07 05:00:00+00,2026/10/31 04:00:00+00,7,20019,Home Provider,ORIDDICK6@GMAIL.COM,(202) 528-6516,,,,Octavia Riddick,,2011/11/10 05:00:00+00,2024/06/21 04:00:00+00,1,4,1,0,6,ronica.milledge1@dc.gov,38.90389126,-76.9319834,405899.7,137339.46,1024 49TH STREET NE,297737,140044
-8569320.05183224,4705611.54772965,Shirley Washington,"1736  Independence AVE, SE ",CDH-910254,Full License,2024/11/14 05:00:00+00,2026/11/30 05:00:00+00,7,20003,Home Provider,swashi839637@gmail.com,(202) 907-7358,,,,Shirley Washington,,2012/09/07 04:00:00+00,2024/08/26 04:00:00+00,4,0,2,0,6,kanell.johnson@dc.gov,38.88778516,-76.97950949,401777.73,135549.52,1736 INDEPENDENCE AVENUE SE,56738,140045
-8573437.14739655,4715001.99137043,"Blooming Minds CDH, LLC","305 Hamilton ST, NW Apt # 4",CDH-910257,Full License,2023/11/16 05:00:00+00,2026/10/31 04:00:00+00,4,20011,Home Provider,aditamasin80@gmail.com,(202) 425-9027,,,,Ada Masin Guzman,,2015/03/17 04:00:00+00,2024/10/24 04:00:00+00,2,0,3,0,5,yesset.makonnen@dc.gov,38.9534154,-77.01649398,398570.32,142834.96,305 HAMILTON STREET NW,243700,140046
-8574152.23736996,4716925.70572264,Damaris Mejia Vasquez,"707 Somerset  PL, NW ",CDH-910298,Full License,2024/08/01 04:00:00+00,2027/02/28 05:00:00+00,4,20011,Home Provider,arcoiris_abcd@hotmail.com,(202) 834-3375,,,,Damaris Mejia Vasquez,,2016/01/19 05:00:00+00,2024/03/14 04:00:00+00,4,0,2,0,6,kanell.johnson@dc.gov,38.96685283,-77.02291774,398013.89,144326.76,707 SOMERSET PLACE NW,250647,140047
-8572932.92374604,4696591.27730722,Timothy Goodwin  @ Jack And Jill Academy,"149  Galveston PL, SW Unit # 2",CDH-910300,Full License,2024/01/09 05:00:00+00,2026/12/31 05:00:00+00,8,20032,Home Provider,stormm1@aol.com,(202) 867-7075,,,,Timothy Goodwin,,2015/12/24 05:00:00+00,2024/11/19 05:00:00+00,1,4,1,0,6,candia.faison@dc.gov,38.82468493,-77.01196447,398961.06,128544.81,149 GALVESTON PLACE SW,62870,140048
-8570926.53721689,4712586.85930519,Petit Scholars North Campus,"3740 10th ST, NE ",CDC-102533,Full License,2023/10/06 04:00:00+00,2026/08/31 04:00:00+00,5,20017,Owner/Director,lashada@petitscholars.com,(202) 529-3357,,,,La Shada Ham-Campbell,,2016/03/23 04:00:00+00,2024/07/10 04:00:00+00,9,0,10,0,19,kimberly.handon-lindsey@dc.gov,38.93654139,-76.99394079,400525.33,140961.72,3740 10TH STREET NE,30872,140049
-8562168.07625649,4706804.94529111,Promoting Love and Wisdom Childcare Home,"508 60th ST, NE ",CDX-102536,Full License,2023/12/21 05:00:00+00,2026/12/31 05:00:00+00,7,20019,Home Provider,duncanlatrell@yahoo.com,(202) 455-9081,,,,Latrall Duncan-Fitchett,,2019/03/28 04:00:00+00,2023/05/22 04:00:00+00,3,6,3,0,12,jazmin.hunt@dc.gov,38.89612923,-76.91526222,407350.88,136478.99,508 60TH STREET NE,13713,140050
-8573905.03644033,4716205.52926695,"Blooming Blossoms Bilingual Child Development Home, LLC","518  Oneida Pl, NW ",CDX-102542,Full License,2023/09/22 04:00:00+00,2026/09/30 04:00:00+00,4,20011,Home Provider,smego1124@gmail.com,(202) 420-9316,,,,Silvia Mego Jara,,2016/03/31 04:00:00+00,2023/05/10 04:00:00+00,4,3,2,0,9,yesset.makonnen@dc.gov,38.96182259,-77.02069709,398206.21,143768.31,518 ONEIDA PLACE NW,246512,140051
-8580505.10448472,4714077.1471188,St. Albans Early Childhood  Center,"4404 Wisconsin AVE, NW ",CDC-102544,Full License,2023/12/15 05:00:00+00,2026/11/30 05:00:00+00,3,20016,Center Director,dmason2@saecc.org,(202) 363-7380,,,,Donna Mason,,2020/01/31 05:00:00+00,2024/09/19 04:00:00+00,32,95,98,0,225,kimberly.handon-lindsey@dc.gov,38.94695398,-77.0799865,393066.23,142120.63,4404 WISCONSIN AVENUE NW,264418,140052
-8573981.06986926,4712277.69971577,KinderCare Education Champions LLC @ Bruce Monroe Elementary School,"3560 Warder ST, NW ",CDC-102547,Restricted,2024/12/11 05:00:00+00,2025/03/03 05:00:00+00,1,20010,Other,tomekia.wilburn@discoverchampions.com,(301) 588-0368,,,,Tomekia Wilburn,Program Manager,2016/05/27 04:00:00+00,2021/11/15 05:00:00+00,0,100,0,100,200,jazmin.hunt@dc.gov,38.93438112,-77.02138012,398146.3,140722.11,3560 WARDER STREET NW,294583,140053
-8570134.32750897,4708386.72859229,Sprouts Town Child Care Development Center,"1605  Montello AVE, NE ",CDC-102548,Full License,2023/12/15 05:00:00+00,2026/11/30 05:00:00+00,5,20002,Center Director,luwam.berhane.lb@gmail.com,(202) 450-4426,,,,Audrey Pabs Garnon,,2016/05/26 04:00:00+00,2024/08/14 04:00:00+00,6,9,12,0,27,kimberly.handon-lindsey@dc.gov,38.90718734,-76.98682425,401142.8,137703.2,1605 MONTELLO AVENUE NE,150075,140054
-8574194.89198428,4718677.59559425,Infancia Feliz CDX,"624 Geranium ST, NW ",CDX-102549,Full License,2023/11/15 05:00:00+00,2026/10/31 04:00:00+00,4,20012,Home Provider,chinydelcaribe24@yahoo.com,(202) 570-6544,,,,Ana Acevedo Perez,,2016/06/10 04:00:00+00,2024/05/07 04:00:00+00,4,0,5,0,9,kimberly.handon-lindsey@dc.gov,38.97908783,-77.02330091,397981.03,145684.97,624 GERANIUM STREET NW,251044,140055
-8574816.74991396,4713523.07330281,UPO @ Roosevelt High School,"4301 13th ST, NW ",CDC-102551,Full License,2023/12/21 05:00:00+00,2026/10/31 04:00:00+00,4,20011,Center Director,jkoskey@upo.org,(202) 939-3609,,,,Joyce koskey,,2016/06/22 04:00:00+00,2024/03/15 04:00:00+00,8,0,8,0,16,jazmin.hunt@dc.gov,38.94308287,-77.02888715,397495.73,141688.26,4301 13TH STREET NW,252605,140056
-8574580.52983666,4716516.25592004,Bridges Preparatory Academy,"907 Quackenbos ST, NW ",CDC-102553,Full License,2024/07/03 04:00:00+00,2027/02/28 05:00:00+00,4,20011,Owner/Director,bridgesacademydc@gmail.com,(202) 829-1901,,,,Lillette Campbell,,2012/01/17 05:00:00+00,2024/03/26 04:00:00+00,0,0,0,100,100,ronica.milledge1@dc.gov,38.96399264,-77.02676515,397680.37,144009.38,907 QUACKENBOS STREET NW,259639,140057
-8574655.07755836,4716550.33338973,Bridges Primary Academy,"6113 Georgia AVE, NW, ",CDC-102555,Full License,2024/07/03 04:00:00+00,2027/02/28 05:00:00+00,4,20011,Owner/Director,bridgesacademydc@gmail.com,(202) 829-1901,,,,Lillette Campbell,,2014/10/31 04:00:00+00,2024/03/27 04:00:00+00,0,0,0,32,32,ronica.milledge1@dc.gov,38.96423067,-77.02743483,397622.34,144035.82,6113 GEORGIA AVENUE NW,254265,140058
-8571584.10894705,4705254.01517148,Capitol Hill Cooperative Nursery School,"421 Seward Square, SE ",CDC-102556,Full License,2024/06/27 04:00:00+00,2027/01/31 05:00:00+00,6,20003,Other,kazt1978@gmail.com,(202) 494-5365,,,,Frances Slaughter,Owner,2016/07/11 04:00:00+00,2023/09/06 04:00:00+00,0,8,8,0,16,kimberly.handon-lindsey@dc.gov,38.88528515,-76.99984786,400013.2,135271.8,421 SEWARD SQUARE SE,25345,140059
-8564836.29084295,4708618.06005985,Lia's Rainbow,"4428  Ord ST,  NE ",CDC-102557,Full License,2023/11/15 05:00:00+00,2026/11/30 05:00:00+00,7,20019,Owner/Director,Taylorroslyn4@yahoo.com,(202) 885-9778,,,,Roslyn A. Taylor,,2015/12/03 05:00:00+00,2024/02/27 05:00:00+00,6,12,4,0,22,Zulieka.Crawford@dc.gov,38.90880408,-76.9392312,405270.67,137884.38,4428 ORD STREET NE,21443,140060
-8572571.50951361,4711107.164847,My Little World Day Care LLC/Maria Dolores Naranjo,"2909 North Capital ST, NE ",CDX-102558,Full License,2023/12/13 05:00:00+00,2026/11/30 05:00:00+00,5,20002,Home Provider,mariaschilddaycare@gmail.com,(202) 607-0629,,,,Maria Dolores Naranjo,,2018/12/11 05:00:00+00,2024/11/14 05:00:00+00,2,4,6,0,12,candia.faison@dc.gov,38.92620164,-77.00871782,399244.06,139813.9,2909 NORTH CAPITOL STREET NE,43407,140061
-8576184.71179038,4707086.65720845,YMCA @ Goodwill Excel Center,"1776  G ST, NW ",CDC-102562,Full License,2024/04/12 04:00:00+00,2026/08/31 04:00:00+00,2,20006,Other,sherris.murray@ymcadc.org,(202) 839-3679,,,,Sherris Murray,Regional Early Learning director,2016/07/12 04:00:00+00,2024/04/10 04:00:00+00,8,5,17,0,30,kanell.johnson@dc.gov,38.89809879,-77.04117576,396428.16,136695.02,1776 G STREET NW,218480,140062
-8579179.89697264,4709746.45378206,British International School of Washington,"2001 Wisconsin AVE, NW ",CDC-102564,Full License,2024/01/29 05:00:00+00,2026/11/30 05:00:00+00,2,20007,Center Director,Emma.Jennings@biswashington.org,(202) 829-3700,,,,Emma Cheung,,2016/08/23 04:00:00+00,2024/10/22 04:00:00+00,0,0,24,0,24,Zulieka.Crawford@dc.gov,38.91669135,-77.06808196,394095.69,138760.38,2001 WISCONSIN AVENUE NW,224666,140063
-8575418.93457996,4714342.60999198,Soles Montessori Child Development,"1414 Delafield PL, NW ",CDX-102566,Full License,2024/03/07 05:00:00+00,2027/03/31 04:00:00+00,4,20011,Home Provider,info@solesmontessori.com,(202) 412-7699,,,,Maribel Gutierrez,,2016/08/03 04:00:00+00,2024/09/18 04:00:00+00,3,6,3,0,12,kimberly.handon-lindsey@dc.gov,38.94880893,-77.03429667,397027.01,142324.03,1414 DELAFIELD PLACE NW,255742,140064
-8568920.64665159,4713103.70503856,Children Of The Future CDC,"2003 Bunker Hill RD, NE ",CDC-102569,Full License,2023/12/20 05:00:00+00,2026/11/30 05:00:00+00,5,20018,Other,cotf2003@gmail.com,(202) 526-5000,,,,Robert Teachey,Owner,2016/09/01 04:00:00+00,2024/09/07 04:00:00+00,6,0,16,0,22,kanell.johnson@dc.gov,38.94015308,-76.97592157,402087.48,141362.87,2003 BUNKER HILL ROAD NE,150235,140065
-8578769.13789918,4708445.45700224,Early Steps Bilingual Preschool of Georgetown,"3222 O ST, NW ",CDC-102574,Full License,2024/02/21 05:00:00+00,2026/12/31 05:00:00+00,2,20007,Center Director,esbpgeorgetown@gmail.com,(202) 944-4424,,,,Priscilla Huayllas,,2016/10/07 04:00:00+00,2024/10/30 04:00:00+00,7,19,10,0,36,kanell.johnson@dc.gov,38.90759788,-77.06439205,394414.98,137750.66,3222 O STREET NW,272129,140066
-8575420.60971743,4716896.4418978,Rosa Pelaez,"1418 Sommerset PL, NW Apt. A5",CDH-102576,Full License,2024/07/22 04:00:00+00,2026/10/31 04:00:00+00,4,20011,Home Provider,dejandohuellascdh@gmail.com,(240) 393-8595,,,,Rosa Pelaez,,2009/10/15 04:00:00+00,2023/08/02 04:00:00+00,3,0,2,0,5,ronica.milledge1@dc.gov,38.96664844,-77.03431172,397026.45,144304.38,1418 SOMERSET PLACE NW,243476,140067
-8575112.78262746,4712923.12166266,Maria G. Morales /Little Praudde II,"1337 Randolph ST, NW ",CDX-102577,Full License,2024/06/12 04:00:00+00,2027/05/31 04:00:00+00,4,20011,Home Provider,praudde_homecare2009@yahoo.com,(202) 299-6313,,,,Maria Gladys Morales,,2016/10/05 04:00:00+00,2024/06/20 04:00:00+00,3,3,3,0,9,kimberly.handon-lindsey@dc.gov,38.93889131,-77.03154646,397265.03,141223,1337 RANDOLPH STREET NW,224922,140068
-8563786.40847111,4704968.44233794,"LTH Infants and Toddlers Center, LLC","5036 Queens Stroll PL, SE ",CDX-102582,Full License,2023/12/15 05:00:00+00,2026/11/30 05:00:00+00,7,20019,Home Provider,sylviacrews.int@gmail.com,(202) 341-5948,,,,Sylvia Crews,,2020/12/16 05:00:00+00,2024/11/25 05:00:00+00,4,3,2,0,9,ronica.milledge1@dc.gov,38.88328824,-76.92979995,406090.85,135052.47,5036 QUEEN'S STROLL PLACE SE,155967,140069
-8571455.28517957,4707458.33013778,Elonda's Day Care,"816 6th ST, NE ",CDX-102583,Full License,2024/01/09 05:00:00+00,2026/12/31 05:00:00+00,6,20002,Home Provider,elondasdaycare@yahoo.com,(301) 281-7932,,,,Elonda Edwards,,2016/08/03 04:00:00+00,2023/08/23 04:00:00+00,4,2,6,0,12,ronica.milledge1@dc.gov,38.9006972,-76.99869062,400113.58,136982.66,816 6TH STREET NE,80385,140070
-8580595.80443897,4714761.60292718,Communikids Preschool LLC II,"4725 Wisconsin AVE, NW ",CDC-102588,Full License,2024/11/22 05:00:00+00,2026/12/31 05:00:00+00,3,20016,Owner/Director,Tia@communikids.com,(202) 244-2549,,,,Tia Frzier-Buckman,,2016/07/01 04:00:00+00,2024/10/16 04:00:00+00,0,20,0,0,20,yesset.makonnen@dc.gov,38.95173607,-77.08080127,392996.07,142651.51,4725 WISCONSIN AVENUE NW,299729,140071
-8580064.20175426,4711848.41841727,Embassy Row Child Development Center,"3855 Massachusetts AVE, NW ",CDC-102592,Full License,2024/06/10 04:00:00+00,2027/05/31 04:00:00+00,3,20016,Center Director,diana@embassyrowchildren.com,(202) 733-4152,,,,Diana Diaz,,2016/11/23 05:00:00+00,2023/12/12 05:00:00+00,16,38,28,0,82,Makia.Tabourn@dc.gov,38.93138137,-77.0760258,393408.13,140391.64,3855 MASSACHUSETTS AVENUE NW,222182,140072
-8574769.10258414,4715731.66606239,Curious Explorers Child Development Center,"5700 Georgia AVE, NW ",CDC-102593,Full License,2023/08/11 04:00:00+00,2026/02/28 05:00:00+00,4,20011,Owner/Director,isatou@curiousexplorers.com,(202) 379-5483,,,,Isatou Jabang,,2017/01/06 05:00:00+00,2023/09/12 04:00:00+00,8,16,16,0,40,jazmin.hunt@dc.gov,38.95851259,-77.02845913,397533.37,143401.05,5700 GEORGIA AVENUE NW,276101,140073
-8563044.71217,4707171.37638708,Amen Family Child Care,"5357 Gay ST, NE ",CDX-102594,Full License,2023/12/22 05:00:00+00,2026/12/31 05:00:00+00,7,20019,Home Provider,kmuluwork@yahoo.com,(202) 492-5510,,,,Muluwork Kenea,,2017/06/22 04:00:00+00,2023/10/17 04:00:00+00,6,0,3,0,9,yesset.makonnen@dc.gov,38.89869074,-76.92313718,406667.5,136762.77,5357 GAY STREET NE,304674,140074
-8573499.74968886,4713865.31465606,"Tomorrow's Promise Child Development Home, Inc.","4501 4th ST,  NW ",CDX-102595,Full License,2023/08/11 04:00:00+00,2026/08/31 04:00:00+00,4,20011,Home Provider,marinakamara@mac.com,(202) 255-1509,,,,Marina Kamara,,2016/11/29 05:00:00+00,2024/04/22 04:00:00+00,6,3,3,0,12,kanell.johnson@dc.gov,38.94547434,-77.01705634,398521.41,141953.44,4501 4TH STREET NW,243961,140075
-8574406.46964531,4714452.89130467,Kings & Queens Child Care Center,"4831 9th ST, NW ",CDX-102600,Full License,2023/02/24 05:00:00+00,2026/02/28 05:00:00+00,4,20011,Home Provider,kingsandqueenschildcarecenter@gmail.com,(202) 360-2409,,,,Cynthia Davis,,2016/08/05 04:00:00+00,2025/01/28 05:00:00+00,2,3,4,0,9,stephanie.tindal@dc.gov,38.94957938,-77.02520155,397815.44,142409.3,4831 9TH STREET NW,251948,140076
-8576166.7949728,4712101.17310673,Alba Turcios/Albina's Child Development Home,"3329 18th ST, NW ",CDX-102602,Restricted,2025/02/12 05:00:00+00,2025/05/13 04:00:00+00,1,20010,Home Provider,albaturcios@hotmail.com,(202) 560-0579,,,,Alba Turcios,,2016/12/14 05:00:00+00,2023/03/20 04:00:00+00,6,0,3,0,9,jazmin.hunt@dc.gov,38.93314793,-77.04101481,396443.87,140585.76,3329 18TH STREET NW,233707,140077
-8574646.49255606,4708190.29276862,Ms. P's Child & Family Services,"1103 M ST, NW ",CDX-102604,Full License,2024/10/07 04:00:00+00,2027/05/31 04:00:00+00,2,20005,Home Provider,angeliquespeight@yahoo.com,(202) 270-3098,,,,Angelique Speight,,2016/12/17 05:00:00+00,2024/02/07 05:00:00+00,3,0,4,0,7,Zulieka.Crawford@dc.gov,38.90581417,-77.02735771,397627.08,137551.04,1103 M STREET NW,278841,140078
-8566534.30420118,4705245.81617714,Growth Spurts Child Learning Center @ Stoneridge,"320 Anacostia RD, SE ",CDC-102606,Full License,2024/08/29 04:00:00+00,2026/09/30 04:00:00+00,7,20019,Other,growthspurtscdc@aol.com,(202) 678-1170,,,,Calvin Smith,Owner,2017/02/21 05:00:00+00,2024/07/15 04:00:00+00,8,8,17,7,40,jazmin.hunt@dc.gov,38.88522781,-76.95448471,403948.99,135266.42,320 ANACOSTIA ROAD SE,298640,140079
-8568170.90060397,4701718.6965815,"Community Educational Research Group, Inc","2503 Good Hope RD, SE ",CDC-102611,Full License,2024/03/04 05:00:00+00,2027/01/31 05:00:00+00,8,20020,Center Director,Dysoncerg3@gmail.com,(202) 582-0324,,,,Samquetta Dyson,,2017/03/29 04:00:00+00,2024/02/20 05:00:00+00,24,25,24,0,73,candia.faison@dc.gov,38.86056005,-76.9691865,402674.36,132527.58,2503 GOOD HOPE ROAD SE,287084,140080
-8573470.93748124,4713815.47323302,Heydi M. Benavides,"328 Allison ST,  NW ",CDX-102612,Full License,2024/03/01 05:00:00+00,2026/10/31 04:00:00+00,4,20011,Home Provider,littleangels328@gmail.com,(202) 210-5061,,,,Heydi M. Benavides,,2017/03/22 04:00:00+00,2024/03/12 04:00:00+00,3,3,3,0,9,kimberly.handon-lindsey@dc.gov,38.94512612,-77.01679752,398543.84,141914.78,328 ALLISON STREET NW,244021,140081
-8570989.29898178,4707422.90305075,Kiddie University H Street D/B/A University For Kids,"806 H ST, NE ",CDC-102613,Full License,2024/01/08 05:00:00+00,2026/06/30 04:00:00+00,6,20002,Center Director,dmartin@kiddieuniversity.com ,(202) 853-9144,,,,Danielle Martin,,2022/03/07 05:00:00+00,2024/03/12 04:00:00+00,14,10,26,0,50,ronica.milledge1@dc.gov,38.90044953,-76.99450459,400476.69,136955.18,806 H STREET NE,79824,140082
-8575891.15401307,4710792.15948002,KinderCare Education Champions LLC  @  Cooke Elementary,"2525 17th ST, NW ",CDC-102615,Full License,2024/12/12 05:00:00+00,2027/01/31 05:00:00+00,1,20009,Center Director,kerry.oreo@discoverchampions.com,(240) 338-8925,,,,Kerry Oreo,,2017/04/05 04:00:00+00,,0,73,0,77,150,stephanie.tindal@dc.gov,38.92399986,-77.03853869,396658.13,139570.19,2525 17TH STREET NW,235863,140083
-8574651.53815574,4717557.5774096,Talentos Bilingual Child Development Center LLC,"6640 Georgia AVE, NW ",CDC-102618,Full License,2023/09/12 04:00:00+00,2026/09/30 04:00:00+00,4,20012,Center Director,talentosbilingualcdc@gmail.com,(202) 723-2119,,,,Maria Lucciana Costta Silva,,2017/05/31 04:00:00+00,2034/08/27 04:00:00+00,7,14,7,0,28,yesset.makonnen@dc.gov,38.97126599,-77.02740303,397625.33,144816.77,6640 GEORGIA AVENUE NW,253386,140084
-8568823.71506873,4711640.13801655,Petit Scholars @  RIA,"2066 Rhode Island AVE, NE ",CDC-102620,Full License,2023/10/31 04:00:00+00,2026/10/31 04:00:00+00,5,20018,Center Director,crg@petitscholars.com,(202) 269-0727,,,,Charlene  Roach - Glymph,,2017/10/24 04:00:00+00,2023/09/07 04:00:00+00,16,13,10,0,39,kimberly.handon-lindsey@dc.gov,38.92992623,-76.97505082,402163.28,140227.62,2066 RHODE ISLAND AVENUE NE,52064,140085
-8571503.81296231,4704198.62629589,Toddlers On The Hill/TOTH Montessori,"1000 5th ST, SE ",CDC-102621,Full License,2023/12/22 05:00:00+00,2026/12/31 05:00:00+00,8,20003,Center Director,stephanie@toddlersonthehill.org,(202) 748-5930,,,,Stephanie Sarvana,,2023/04/12 04:00:00+00,2024/02/08 05:00:00+00,8,28,20,0,56,candia.faison@dc.gov,38.8779046,-76.99912655,400075.79,134452.54,1000 5TH STREET SE,289437,140086
-8567970.42566714,4700540.14846076,"Towana McMickens/Kiddie Academy Child Development, LLC","2739 Knox Terrace, SE ",CDX-102623,Full License,2024/01/31 05:00:00+00,2027/01/31 05:00:00+00,8,20020,Home Provider,towana.peterson@verizon.net,(202) 678-3744,,,,Towana McMickens,,2017/06/29 04:00:00+00,2024/07/17 04:00:00+00,2,3,2,2,9,candia.faison@dc.gov,38.85231534,-76.9673856,402830.99,131612.45,2739 KNOX TERRACE SE,289153,140087
-8570135.12839846,4701739.98319381,RUNN AND SHOOT WITH ME LLC,"1432 Bangor ST, SE ",CDH-102624,Full License,2024/09/09 04:00:00+00,2027/04/30 04:00:00+00,8,20020,Home Provider,pcolesiah@yahoo.com,(202) 567-9786,,,,Pricilla S. Collins Cole,,2017/09/11 04:00:00+00,2024/08/13 04:00:00+00,2,0,3,0,5,Makia.Tabourn@dc.gov,38.86070861,-76.98683145,401142.92,132543.74,1432 BANGOR STREET SE,63656,140088
-8583289.41029874,4711335.77502125,Aida Mendoza/Tita's Family Home DayCare,"5310 Macarthur BLVD, NW ",CDX-102626,Full License,2024/07/17 04:00:00+00,2026/11/30 05:00:00+00,3,20016,Home Provider,aidajmendoza618@gmail.com,(202) 364-4488,,,,Aida Mendoza,,2016/09/30 04:00:00+00,2024/08/12 04:00:00+00,6,1,2,0,9,ronica.milledge1@dc.gov,38.92779927,-77.10499834,390895.59,139996.45,5310 MACARTHUR BOULEVARD NW,285157,140089
-8570968.31173194,4707917.03746682,Karla Richardson/New Life Early Learning,"814 L ST, NE ",CDX-102629,Full License,2024/03/18 04:00:00+00,2027/03/31 04:00:00+00,6,20002,Home Provider,karlalrichardson@hotmail.com,(202) 827-8019,,,,Karla Richardson,,2017/09/26 04:00:00+00,2025/01/29 05:00:00+00,4,3,2,0,9,kanell.johnson@dc.gov,38.90390395,-76.99431606,400493.02,137338.65,814 L STREET NE,80286,140090
-8571188.08404136,4716031.87405694,Lisa Fair/Ms. Lisa's Home Day Care,"5864 Eastern AVE, NE ",CDH-102637,Temporary Closure,2024/09/10 04:00:00+00,2027/08/31 04:00:00+00,4,20011,Home Provider,lisaaaron40@gmail.com,(202) 749-4866,,,,Lisa Fair,,2017/12/01 05:00:00+00,2024/10/17 04:00:00+00,1,2,3,0,6,Makia.Tabourn@dc.gov,38.9606096,-76.9962903,400321.52,143633.46,5864 EASTERN AVENUE NE,6148,140091
-8574303.4135476,4715476.30866485,Mayra Lorena Barrientos Pineda/Pasitos 123 CDH,"5510 8th ST, NW ",CDX-102638,Full License,2024/01/31 05:00:00+00,2027/01/31 05:00:00+00,4,20011,Home Provider,mayrabarrientos11@yahoo.com,(202) 702-6346,,,,Mayra Lorena Barrientos Pineda,,2017/12/15 05:00:00+00,2024/10/08 04:00:00+00,4,3,2,0,9,yesset.makonnen@dc.gov,38.95672881,-77.02427578,397895.9,143202.93,5510 8TH STREET NW,254469,140092
-8574062.95051987,4709210.25385568,Logan-Shaw Child Care,"1700 7th ST, NW ",CDC-102641,Full License,2024/10/11 04:00:00+00,2027/02/28 05:00:00+00,2,20001,Owner/Director,loganshawcc@gmail.com,(202) 515-6954,,,,Amsale Tesfaye,,2018/02/06 05:00:00+00,2023/11/29 05:00:00+00,14,10,24,0,48,jazmin.hunt@dc.gov,38.91294352,-77.02211566,398081.95,138342.37,1700 7TH STREET NW,311197,140093
-8574233.04201879,4706707.49224296,KinderCare Learning Center @ 9th Street,"401 9th ST, NW ",CDC-102646,Full License,2024/04/19 04:00:00+00,2027/04/30 04:00:00+00,2,20004,Center Director,Pennquarter@kindercare.com,(202) 637-3269,,,,NiMat El-Amin,,2019/03/11 04:00:00+00,2024/03/20 04:00:00+00,32,16,48,0,96,Zulieka.Crawford@dc.gov,38.89544789,-77.02364362,397948.93,136400.21,401 9TH STREET NW,242761,140094
-8563263.46289659,4705850.76053263,Shining Star 2 Early Learning Center,"5325 East Capitol ST, SE ",CDC-102651,Full License,2024/08/14 04:00:00+00,2027/06/30 04:00:00+00,7,20019,Center Director,shiningstarearlylearningcenter@gmail.com,(202) 506-5830,,,,Lattice Edmonds,,2018/02/28 05:00:00+00,2024/05/09 04:00:00+00,8,0,24,0,32,Zulieka.Crawford@dc.gov,38.88945778,-76.92510225,406497.88,135737.66,5325 EAST CAPITOL STREET SE,288610,140095
-8574120.26763679,4708925.89943262,Nassia M. Seid,"712 Q  ST, NW ",CDH-102652,Full License,2024/10/21 04:00:00+00,2027/06/30 04:00:00+00,2,20001,Home Provider,nasliyu2011@gmail.com,(202) 823-8731,,,,Nassia  M.  Seid,,2017/06/22 04:00:00+00,2024/03/14 04:00:00+00,4,0,2,0,6,Zulieka.Crawford@dc.gov,38.91095625,-77.02263055,398037.24,138121.74,712 Q STREET NW,225968,140096
-8568303.06164291,4700959.8928792,The Learning Curve CDC,"2490 Alabama AVE, SE ",CDC-102659,Full License,2024/05/15 04:00:00+00,2027/04/30 04:00:00+00,8,20020,Owner/Director,thelearningcurvecdc@gmail.com,(202) 678-6716,,,,Tanetta Merritt,,2018/03/05 05:00:00+00,2023/10/04 04:00:00+00,0,13,12,14,39,jazmin.hunt@dc.gov,38.85525172,-76.97037372,402571.51,131938.32,2490 ALABAMA AVENUE SE,278169,140097
-8570581.20374209,4712039.95075866,Nido Nurturing Center,"3501 12th ST, NE ",CDC-102664,Full License,2024/06/07 04:00:00+00,2027/05/31 04:00:00+00,5,20017,Owner/Director,nidonurturing@aol.com,(202) 372-7270,,,,Carmen  Cecilia Ayala-De - Muslera,,2018/03/27 04:00:00+00,2024/02/29 05:00:00+00,8,4,4,0,16,Makia.Tabourn@dc.gov,38.93272011,-76.99083861,400794.33,140537.51,3501 12TH STREET NE,302089,140098
-8575543.23987142,4712470.07299693,Elsa Gaiem,"3547 Hertford PL, NW ",CDX-102668,Full License,2024/06/06 04:00:00+00,2027/06/30 04:00:00+00,1,20010,Home Provider,elsa.gaiem@gmail.com,(202) 986-8948,,,,Elsa Gaiem,,2018/02/27 05:00:00+00,2024/03/14 04:00:00+00,4,3,2,0,9,Makia.Tabourn@dc.gov,38.93572568,-77.03541332,396929.65,140871.71,3547 HERTFORD PLACE NW,234675,140099
-8569862.9144469,4700948.94870044,Martha's Table Hillsdale Early Learning  Center,"2375 Elvans RD,  SE ",CDC-102671,Full License,2024/07/18 04:00:00+00,2027/07/31 04:00:00+00,8,20020,Center Director,smurphybrown@marthastable.org,(202) 328-6608,,,,Sherron Murphy-Brown,,2018/05/25 04:00:00+00,2023/11/08 05:00:00+00,16,40,80,0,136,stephanie.tindal@dc.gov,38.85517516,-76.98438611,401355.26,131929.52,2375 ELVANS ROAD SE,313874,140100
-8571115.63261194,4705189.09983901,"STEM Preschool, LLC","700 Pennsylvania AVE SE, Suite #770 ",CDC-102673,Full License,2024/08/13 04:00:00+00,2027/07/31 04:00:00+00,6,20003,Owner/Director,capitolhill@stempreschool.com,(202) 900-3390,,,,Portia Moore,,2018/06/12 04:00:00+00,2024/03/06 05:00:00+00,0,16,31,0,47,Makia.Tabourn@dc.gov,38.88483089,-76.99563947,400378.33,135221.42,700 PENNSYLVANIA AVENUE SE,311942,140101
-8571694.17327072,4697350.0830798,Home Away From Home Too Child Development Center Inc.,"4119 4th ST, SE ",CDC-102674,Full License,2024/09/19 04:00:00+00,2027/08/31 04:00:00+00,8,20032,Owner/Director,hafhtoo4119@gmail.com  ,(202) 487-1067,,,,Dorothy Council,,2017/11/07 05:00:00+00,2024/03/18 04:00:00+00,13,18,39,15,85,jazmin.hunt@dc.gov,38.82999489,-77.00083659,399927.36,129134.22,4119 4TH STREET SE,149573,140102
-8569685.70231632,4700035.51848285,"POC Learning Academy, LLC","3229 15th PL, SE ",CDX-102676,Full License,2024/09/18 04:00:00+00,2027/08/31 04:00:00+00,8,20020,Home Provider,info@poclearningacademy.com,(202) 851-4988,,,,Alethea Etinoff,,2018/06/13 04:00:00+00,2024/05/30 04:00:00+00,4,3,2,0,9,candia.faison@dc.gov,38.84878498,-76.98279419,401493.57,131220.19,3229 15TH PLACE SE,155551,140103
-8572009.63260169,4713275.30688141,Washington Yu Ying,"220 Taylor ST, NE ",CDC-102679,Full License,2024/11/05 05:00:00+00,2027/08/31 04:00:00+00,5,20017,Center Director,lashada.ham-campbell@washingtonyuying.org,(585) 329-9613,,,,La Shada Ham-Campbell,,2014/11/06 05:00:00+00,2023/11/16 05:00:00+00,4,0,4,0,8,Makia.Tabourn@dc.gov,38.94135174,-77.0036704,399681.8,141495.7,220 TAYLOR STREET NE,50738,140104
-8566017.3012089,4706322.72428467,Worlds Youngest Scholars,"3919 Clay PL, NE ",CDX-102680,Full License,2024/09/20 04:00:00+00,2027/08/31 04:00:00+00,7,20019,Home Provider,worldsyoungestscholars@rcn.com,(202) 398-4759,,,,Wanda  Yvette Thomas Smith,,2018/06/07 04:00:00+00,2024/03/25 04:00:00+00,2,2,5,0,9,stephanie.tindal@dc.gov,38.89275773,-76.94984039,404351.48,136102.51,3919 CLAY PLACE NE,29176,140105
-8576115.43566377,4712268.67040795,"KinderCare Education Champions, LLC @ Bancroft","1755 Newton ST, NW ",CDC-102681,Full License,2024/10/28 04:00:00+00,2027/09/30 04:00:00+00,1,20010,Center Director,kris.ramos@discoverchampions.com,(301) 237-2005,,,,Kris Ramos,,2018/06/22 04:00:00+00,2024/01/08 05:00:00+00,0,48,0,202,250,stephanie.tindal@dc.gov,38.93431836,-77.04055344,396483.93,140715.67,1755 NEWTON STREET NW,294528,140106
-8574569.10599654,4714336.13833987,David's Stars Child Development Center Brains in Development,"4813  Georgia AVE, NW ",CDC-102683,Full License,2024/12/16 05:00:00+00,2027/11/30 05:00:00+00,4,20011,Owner/Director,davidstarscdc@gmail.com ,(202) 891-9867,,,,Maria Leticia Naranjo Arias,,2018/07/12 04:00:00+00,2024/02/14 05:00:00+00,16,12,40,0,68,candia.faison@dc.gov,38.94876372,-77.02666253,397688.77,142318.79,4813 GEORGIA AVENUE NW,252039,140107
-8581393.96592285,4712263.18592365,Wonders Extended Day at Horace Mann,"4430 Newark ST, NW ",CDC-102684,Full License,2024/12/27 05:00:00+00,2027/10/31 04:00:00+00,3,20016,Other,kwoodard@wonderschildcare.org,(301) 654-5339,,,,Kari Woodard,Compliance Specialist,,2024/11/15 05:00:00+00,0,40,0,60,100,kanell.johnson@dc.gov,38.9342797,-77.08797127,392372.7,140714.31,4430 NEWARK STREET NW,294597,140108
-8571169.15703371,4696790.32075919,KD's Klubhouse,"700 Southern AVE, SE ",CDC-102686,Full License,2025/01/10 05:00:00+00,2027/11/30 05:00:00+00,8,20032,Center Director,kdsklubhousecdc@gmail.com,(202) 562-7000,,,,Khalea Dixon,,2018/08/17 04:00:00+00,2024/03/19 04:00:00+00,8,14,26,20,68,ronica.milledge1@dc.gov,38.82607758,-76.99612029,400336.89,128699.38,700 SOUTHERN AVENUE SE,298216,140109
-8571629.93335835,4698688.99943127,"Bright Beginnings, Inc.","3418 4th ST, SE ",CDC-102687,Full License,2024/10/08 04:00:00+00,2027/09/30 04:00:00+00,8,20032,Other,rsally@bbidc.org,(202) 731-1877,,,,Renee Sally,Director of Operations,2020/08/13 04:00:00+00,2024/07/17 04:00:00+00,16,32,79,0,127,Makia.Tabourn@dc.gov,38.83936396,-77.00025951,399977.47,130174.25,3418 4TH STREET SE,278389,140110
-8575604.59926746,4716525.884862,Wonders Extended Day at Milton,"6045 16th ST, NW ",CDC-102689,Full License,2025/01/28 05:00:00+00,2027/12/31 05:00:00+00,4,20011,Other,Kwoodard@wonderslearning.org  ,(301) 654-5339,,,,Kari Woodard,Compliance Specialist,2018/11/19 05:00:00+00,2024/11/19 05:00:00+00,0,0,0,46,46,kanell.johnson@dc.gov,38.96406023,-77.03596452,396883.1,144017.12,6045 16TH STREET NW,256159,140111
-8576034.26332844,4707093.91416356,Federal Home Loan  Bank Board Small Savers CDC,"1700 G ST,  NW ",CDC-102690,Full License,2025/01/29 05:00:00+00,2027/09/30 04:00:00+00,2,20552,Center Director,daniel.powell@smallsavers.org,(202) 200-4908,,,,Daniel Powell,,2019/10/31 04:00:00+00,2024/08/15 04:00:00+00,12,32,30,0,74,Makia.Tabourn@dc.gov,38.89814952,-77.03982426,396545.4,136700.6,1700 G STREET NW,301067,140112
-8569023.70914154,4699260.48952102,AppleTree Early Public Charter School @ Parkland,1801 Mississippi AVE. SE 3rd Floor ,CDC-102693,Full License,2022/04/27 04:00:00+00,2024/11/30 05:00:00+00,8,20032,Other,devon.tucker@appletreeinstitute.org,(202) 506-1890,,,,Devon Tucker,Operations & Compliance Specialist,2018/08/30 04:00:00+00,2024/09/17 04:00:00+00,0,80,0,0,80,jazmin.hunt@dc.gov,38.84336258,-76.97684741,402009.94,130618.38,1801 MISSISSIPPI AVENUE SE,313139,140113
-8582943.97229213,4710929.66119277,Palisades Montessori Infant and Toddler Center,"5104 MacArthur BLD, NW ",CDC-102696,Full License,2025/02/01 05:00:00+00,2025/05/01 04:00:00+00,3,20016,Center Director,heather@palisadesmontessori.com,(202) 537-6807,,,,Gwendolyn Horton,,2020/01/09 05:00:00+00,2024/01/18 05:00:00+00,0,12,12,0,24,jazmin.hunt@dc.gov,38.92496115,-77.10189521,391164.31,139681.09,5104 MACARTHUR BOULEVARD NW,285088,140114
-8575518.21558602,4711199.44357273,Martha's Table Maycroft Early Learning Center,"1474 Columbia RD, NW ",CDC-102698,Full License,2025/02/03 05:00:00+00,2028/02/29 05:00:00+00,1,20009,Other,direland@marthastable.org,(202) 808-8000,,,,Douglas Ireland,Program Administrator,2019/02/15 05:00:00+00,2024/04/01 04:00:00+00,0,0,32,0,32,stephanie.tindal@dc.gov,38.92684653,-77.03518853,396948.76,139886.04,1474 COLUMBIA ROAD NW,234344,140115
-8576112.23823567,4710148.15989358,UPO @ Marie Reed Elementary School,"2195 Champlain ST, NW ",CDC-102700,Full License,2023/06/28 04:00:00+00,2025/03/31 04:00:00+00,1,20009,Center Director,csalas@upo.org,(202) 238-4686,,,,Charmie Salas,,2018/09/17 04:00:00+00,2025/07/09 04:00:00+00,8,0,8,0,16,kanell.johnson@dc.gov,38.91949899,-77.04052472,396485.69,139070.63,2195 CHAMPLAIN STREET NW,316202,140116
-8569777.76061669,4702502.52667452,UPO @ Ketcham Elementary School,"1919 15th ST, SE ",CDC-102701,Restricted,2025/02/21 05:00:00+00,2025/05/22 04:00:00+00,8,20020,Center Director,swilliams@upo.org,(202) 610-5872,,,,Shirleeta Williams,,2019/01/22 05:00:00+00,2023/12/07 05:00:00+00,16,0,16,0,32,jazmin.hunt@dc.gov,38.86604269,-76.98362116,401421.44,133135.87,1919 15TH STREET SE,286537,140117
-8570547.48080171,4706144.75971272,AppleTree Early Learning Public Charter School - Lincoln Park,"138 12th ST, NE ",CDC-102705,Full License,2023/05/08 04:00:00+00,2025/05/31 04:00:00+00,6,20002,Other,devon.tucker@appletreeinstitute.org,(202) 621-6581,,,,Devon Tucker,Compliance Specialist,2011/10/14 04:00:00+00,2024/03/21 04:00:00+00,0,47,0,0,47,kanell.johnson@dc.gov,38.89151343,-76.99053567,400821.07,135963.23,138 12TH STREET NE,65489,140118
-8575724.30289093,4711865.31034098,Prep Enrichment Center,"1604 Park RD, NW ",CDC-102706,Full License,2022/09/12 04:00:00+00,2025/06/30 04:00:00+00,1,20010,Other,info@prepenrichmentcenter.com,(202) 506-4394,,,,Naimah   Simkins,Owner,2019/02/27 05:00:00+00,2023/08/02 04:00:00+00,16,7,11,0,34,kanell.johnson@dc.gov,38.93149974,-77.03703984,396788.44,140402.65,1604 PARK ROAD NW,233550,140119
-8580437.48541628,4714512.61800813,Two Birds Tenleytown,"4001 Brandywine ST,  NW ",CDC-102707,Full License,2022/04/28 04:00:00+00,2025/04/30 04:00:00+00,3,20016,Center Director, tenleytown@twobirdsinc.com,(202) 627-2142,,,,Carol Reynolds,,2019/04/04 04:00:00+00,2024/08/22 04:00:00+00,23,39,31,0,93,jazmin.hunt@dc.gov,38.94999665,-77.07937906,393119.18,142458.31,4001 BRANDYWINE STREET NW,265171,140120
-8564948.11794189,4703070.79578272,Rocketship  Legacy Prep,"4250 Massachusetts AVE, SE ",CDC-102723,Full License,2024/07/08 04:00:00+00,2026/08/31 04:00:00+00,7,20019,Other,rhustedt@rsed.org,(402) 310-9586,,,,Rachel Hustedt,Extended Learning Compliance Specialist,2018/01/19 05:00:00+00,2024/10/22 04:00:00+00,0,48,0,102,150,ronica.milledge1@dc.gov,38.87001696,-76.94023576,405186.36,133578.65,4250 MASSACHUSETTS AVENUE SE,278515,140121
-8573203.59922876,4706404.25173135,"Department of Labor CDC / KinderCare Education,  LLC","200 Constitution AVE, NW ",CDC-102727,Full License,2024/04/15 04:00:00+00,2025/07/31 04:00:00+00,6,20210,Center Director,drush@kindercare.com,(202) 693-7979,,,,Donneeka Rush,,2019/04/23 04:00:00+00,2023/09/28 04:00:00+00,24,12,76,12,124,kimberly.handon-lindsey@dc.gov,38.89332775,-77.01439598,398751.12,136164.69,200 CONSTITUTION AVENUE NW,291712,140122
-8574968.93758925,4710520.78182122,Creative Minds Child Care,"1308 Cliffton ST, NW ",CDC-102728,Full License,2022/09/08 04:00:00+00,2025/08/31 04:00:00+00,1,20009,Owner/Director,childcare@creativemindscc.com,(202) 599-3411,,,,Amsale Tesfaye,,2019/05/10 04:00:00+00,2024/07/17 04:00:00+00,23,10,9,0,42,Zulieka.Crawford@dc.gov,38.92210359,-77.03025428,397376.44,139359.38,1308 CLIFTON STREET NW,232076,140123
-8574053.46065054,4704334.03759424,"Taylored Education, LLC /DBA The Goddard School","910 7th ST, SW ",CDC-102729,Full License,2023/09/01 04:00:00+00,2025/07/31 04:00:00+00,6,20024,Center Director,dwashingtondc@goddardschools.com,(202) 318-1818,,,,Drianita Bristol,,2019/05/10 04:00:00+00,2024/07/30 04:00:00+00,0,48,48,0,96,kanell.johnson@dc.gov,38.87885156,-77.02203042,398088.43,134557.89,910 7TH STREET SW,319664,140124
-8576339.67941161,4706946.06109144,US Kids Child Development Center,"1800 F ST, NW ",CDC-102731,Full License,2022/08/29 04:00:00+00,2025/08/31 04:00:00+00,2,20405,Center Director,Debbie@uskidsdc.org,(202) 233-4623,,,,Debbie Reynolds,,2021/02/17 05:00:00+00,2024/04/22 04:00:00+00,13,16,38,0,67,kanell.johnson@dc.gov,38.89711584,-77.04256786,396307.35,136585.96,1800 F STREET NW,291709,140125
-8574399.48643518,4714229.26805769,Narbear Child Development Home Daycare,"4725 9th ST, NW ",CDH-102742,Full License,2024/02/22 05:00:00+00,2027/02/28 05:00:00+00,4,20011,Home Provider,narbear4725@icloud.com,(240) 779-7959,,,,Jennifer Bonilla,,2018/05/03 04:00:00+00,2023/09/21 04:00:00+00,2,2,2,0,6,Makia.Tabourn@dc.gov,38.94801709,-77.02513881,397820.83,142235.87,4725 9TH STREET NW,252193,140126
-8573087.24664132,4708128.1680929,Kidz Care Unlimited Child Development Center,"128 M ST, NW Suite 150 & 300",CDC-102750,Full License,2022/10/31 04:00:00+00,2025/10/31 04:00:00+00,6,20001,Owner/Director,lwilson@kidzcareunlimited.com,(202) 525-5140,,,,La'Shawn E. Wilson,,2019/08/19 04:00:00+00,2023/12/11 05:00:00+00,16,26,48,10,100,Zulieka.Crawford@dc.gov,38.90537989,-77.01335077,398841.99,137502.56,128 M STREET NW,279016,140127
-8580265.29424478,4713585.65679232,"Broadcasters' Child Development Center, Inc.","4200 Wisconsin AVE, NW Suite LL",CDC-102751,Full License,2022/09/30 04:00:00+00,2025/09/30 04:00:00+00,3,20016,Other,kim@bcdconline.org,(202) 846-7672,,,,Kimberly Mohler,Executive Director,2019/09/20 04:00:00+00,2024/08/27 04:00:00+00,32,19,70,0,121,stephanie.tindal@dc.gov,38.94352013,-77.07783225,393252.65,141739.28,4200 WISCONSIN AVENUE NW,222979,140128
-8569344.68042569,4711854.06495806,Woodbridge Day Care Center V,"3302 18th ST, NE ",CDC-102752,Full License,2023/10/04 04:00:00+00,2026/09/30 04:00:00+00,5,20018,Center Director,woodbridgevdirector@gmail.com,(202) 248-4316,,,,Mia Lewis,,2013/06/07 04:00:00+00,2024/05/01 04:00:00+00,8,24,6,0,38,stephanie.tindal@dc.gov,38.93142116,-76.97973073,401757.46,140393.47,3302 18TH STREET NE,36977,140129
-8563362.03352862,4705102.54867601,UPO @ C. W. Harris Elementary School,"301 53rd ST, SE ",CDC-102753,Full License,2022/10/31 04:00:00+00,2025/10/31 04:00:00+00,7,20019,Center Director,juwright@upo.org,(202) 575-9394,,,,Juliet Wright-Fuller,,2019/09/12 04:00:00+00,2024/01/29 05:00:00+00,8,0,8,0,16,Zulieka.Crawford@dc.gov,38.88422567,-76.92598772,406421.53,135156.83,301 53RD STREET SE,289801,140130
-8569353.23721676,4713866.53270815,KittyFlo Learning Academy/Renessa L. Copeland,"1740 Allison ST, NE ",CDX-102758,Full License,2024/11/07 05:00:00+00,2026/08/31 04:00:00+00,5,20017,Home Provider,nessa0987@hotmail.com,(202) 455-8618,,,,Renessa L. Copeland,,2019/10/31 04:00:00+00,2024/11/13 05:00:00+00,4,2,3,0,9,jazmin.hunt@dc.gov,38.94548252,-76.9798076,401750.45,141954.44,1740 ALLISON STREET NE,56590,140131
-8574935.45560038,4710040.86451932,YMCA @ Meridian Public School,"2120 13th ST, NW ",CDC-102759,Full License,2025/02/04 05:00:00+00,2027/05/31 04:00:00+00,1,20009,Center Director,dana.noble@ymcadc.org,(202) 232-6936,,,,Dana Noble,,2019/08/29 04:00:00+00,2024/09/10 04:00:00+00,0,48,0,52,100,kanell.johnson@dc.gov,38.91874942,-77.02995351,397402.4,138987.03,2120 13TH STREET NW,310205,140132
-8572115.20344326,4697671.19199743,Khadijah's Little Angels Daycare,"126 Yuma ST,  SE ",CDX-102762,Full License,2023/06/30 04:00:00+00,2026/06/30 04:00:00+00,8,20032,Home Provider,khadijah.angels@icloud.com,(202) 425-8511,,,,Winifred Thomas,,2018/06/08 04:00:00+00,2024/09/30 04:00:00+00,4,3,2,0,9,stephanie.tindal@dc.gov,38.83224196,-77.00461876,399598.97,129383.67,126 YUMA STREET SE,69417,140133
-8574373.35575592,4715135.75903723,Edna De Leon Lopez / Peaceful Play Bilingual CDX,"823 Ingraham ST,  NW ",CDX-102763,Full License,2023/05/17 04:00:00+00,2026/03/31 04:00:00+00,4,20011,Home Provider,lizlopez-10@hotmail.com,(202) 769-7622,,,,Edna De Leon Lopez,,2019/11/07 05:00:00+00,2024/01/11 05:00:00+00,2,2,5,0,9,kimberly.handon-lindsey@dc.gov,38.95434987,-77.02490408,397841.37,142938.86,823 INGRAHAM STREET NW,254684,140134
-8570493.33552522,4702205.58332709,Bethel Christian Fellowship CDC Infant Center,"2224 Martin Luther King Jr.  Ave., SE ",CDC-102764,Full License,2024/03/07 05:00:00+00,2027/02/28 05:00:00+00,8,20020,Center Director,bcfcdc@gmail.com,(202) 678-8934,,,,Wanda Edwards,,2018/09/04 04:00:00+00,2023/12/27 05:00:00+00,4,0,4,0,8,kimberly.handon-lindsey@dc.gov,38.86396572,-76.99004928,400863.6,132905.23,2224 MARTIN LUTHER KING JR AVENUE SE,309642,140135
-8572916.39918309,4716690.99074537,2 New Heights  Child Development Center,"6207 Blair RD, NW ",CDC-102765,Full License,2023/02/27 05:00:00+00,2026/02/28 05:00:00+00,4,20011,Other,dr.battle@2newheightscdc.com,(202) 726-1999,,,,Ernesta Gibbs Battle,Owner,2020/07/21 04:00:00+00,2024/03/14 04:00:00+00,24,33,32,9,98,candia.faison@dc.gov,38.96521345,-77.01181602,398975.97,144144.59,6207 BLAIR ROAD NW,245585,140136
-8565069.37295211,4706066.09921653,Rising Stars Early Learning  Center,"4212 East Capitol ST, NE ",CDC-102766,Full License,2023/12/22 05:00:00+00,2026/09/30 04:00:00+00,7,20019,Owner/Director,info@dcrisingstars.com,(301) 456-9025,,,,Keyanna Coward-Morant,,2020/08/27 04:00:00+00,2024/11/19 05:00:00+00,8,12,8,0,28,ronica.milledge1@dc.gov,38.89096344,-76.94132501,405090.34,135903.77,4212 EAST CAPITOL STREET NE,305753,140137
-8571496.26638491,4708261.67841802,First Choice Day Care,"511 Florida  AVE, NE ",CDX-102767,Full License,2023/03/30 04:00:00+00,2026/03/31 04:00:00+00,6,20002,Home Provider,hewan@firstchoicedaycaredc.com,(202) 733-2954,,,,Hewan Amare Mengistu,,2020/01/28 05:00:00+00,2025/03/10 04:00:00+00,3,3,3,0,9,kanell.johnson@dc.gov,38.90631319,-76.99905876,400081.64,137606.08,511 FLORIDA AVENUE NE,13317,140138
-8575866.06231524,4710958.90119419,Mesac Child Development Center,"1646 Columbia RD, NW ",CDC-102771,Full License,2023/09/11 04:00:00+00,2026/08/31 04:00:00+00,1,20009,Owner/Director,mesaccdc@gmail.com,(202) 631-9515,,,,Maria Del Carmen Cabieses,,2021/12/01 05:00:00+00,2024/06/06 04:00:00+00,8,12,16,0,36,Zulieka.Crawford@dc.gov,38.9251655,-77.03831329,396677.73,139699.54,1646 COLUMBIA ROAD NW,235891,140139
-8569595.15266448,4702580.21980382,"Little Emotions Child Development Center, LLC","1922 16th ST, SE ",CDH-102772,Full License,2024/04/19 04:00:00+00,2027/04/30 04:00:00+00,8,20020,Home Provider,littleemotionscdc@gmail.com,(202) 749-0705,,,,Zecketia Coleman,,2020/02/03 05:00:00+00,2024/03/27 04:00:00+00,2,0,4,0,6,Zulieka.Crawford@dc.gov,38.86658611,-76.98198077,401563.79,133196.22,1922 16TH STREET SE,53786,140140
-8570782.90643,4715383.83961447,Tyraee Carter / The Carter's Heaven Arms,"921  Jefferson ST, NE ",CDH-102773,Restricted,2025/02/21 05:00:00+00,2025/05/22 04:00:00+00,5,20011,Home Provider,ctyraee@yahoo.com,(202) 413-8098,,,,Tyraee Carter,,2020/03/04 05:00:00+00,2022/10/05 04:00:00+00,1,1,2,0,4,jazmin.hunt@dc.gov,38.95608287,-76.99265053,400637.02,143130.97,921 JEFFERSON STREET NE,82557,140141
-8573977.72215807,4715709.53412601,Growing Minds Together,"538 Madison ST, NW ",CDX-102775,Full License,2023/08/16 04:00:00+00,2026/08/31 04:00:00+00,4,20011,Home Provider,growingmindstogether@gmail.com,(202) 820-2940,,,,Rosmery Martinez Nix,,2020/03/10 04:00:00+00,2024/01/22 05:00:00+00,4,1,4,0,9,jazmin.hunt@dc.gov,38.95835799,-77.02135004,398149.53,143383.72,538 MADISON STREET NW,246656,140142
-8564048.63666197,4708566.63775345,"KU Kids Deanwood, LLC","1350 49th ST, NE ",CDC-102776,Full License,2024/09/09 04:00:00+00,2026/09/30 04:00:00+00,7,20019,Center Director,info@kiddieuniversity.com,(202) 975-1061,,,,Cassandra Nelson,,2021/08/25 04:00:00+00,2023/10/18 04:00:00+00,16,16,44,0,76,ronica.milledge1@dc.gov,38.90844496,-76.93215558,405884.39,137844.91,1350 49TH STREET NE,307551,140143
-8569506.55935932,4711129.21754179,Bellas Artes Child Creativity Center,"1613  Rhode Island AVE, NE ",CDC-102778,Full License,2023/10/30 04:00:00+00,2026/10/31 04:00:00+00,5,20018,Owner/Director,bellas.artesccc@gmail.com,(202) 758-0395,,,,Mitzi Jamileth Rodriguez Galvez,,2020/06/25 04:00:00+00,2024/08/27 04:00:00+00,6,0,24,0,30,ronica.milledge1@dc.gov,38.92635576,-76.98118492,401631.49,139831.14,1613 RHODE ISLAND AVENUE NE,59813,140144
-8577652.11791491,4707977.78499505,Learning Leaf Childcare Center,"2555 Pennsylvania  AVE, NW ",CDC-102779,Full License,2024/04/24 04:00:00+00,2026/12/31 05:00:00+00,2,20037,Center Director,lyhaynes913@aol.com,(202) 857-1900,,,,Lynnette  Haynes,,2020/07/13 04:00:00+00,2023/08/02 04:00:00+00,16,16,20,0,52,jazmin.hunt@dc.gov,38.90432862,-77.05435769,395285.09,137387.18,2555 PENNSYLVANIA AVENUE NW,274805,140145
-8573705.50399451,4706512.54323898,DC Superior Court Child Care Center,"500 Indiana AVE, NW   # C-100 ",CDC-102780,Full License,2024/03/26 04:00:00+00,2027/03/31 04:00:00+00,6,20001,Center Director,DorothyAnn.Coleman@dcsc.gov,(202) 879-1684,,,,Dorothy Ann Coleman,,2020/05/13 04:00:00+00,2024/12/06 05:00:00+00,0,8,4,4,16,ronica.milledge1@dc.gov,38.89408489,-77.01890467,398360,136248.81,500 INDIANA AVENUE NW,285553,140146
-8568986.79026042,4700268.00164991,Khadijah Thomas/Ngegha Beginner Child Care,"1890 Alabama AVE, SE ",CDX-102781,Full License,2024/02/01 05:00:00+00,2026/09/30 04:00:00+00,8,20020,Home Provider,khathomas@yahoo.com,(202) 375-8623,,,,Khadijah Thomas,,2019/10/15 04:00:00+00,2024/09/23 04:00:00+00,6,1,1,0,8,ronica.milledge1@dc.gov,38.85041144,-76.97651576,402038.53,131400.86,1890 ALABAMA AVENUE SE,299075,140147
-8579853.47519514,4712431.26277214,Communikids Preschool LLC VI,"3400 Idaho AVE, NW 100A",CDC-102785,Full License,2024/03/05 05:00:00+00,2026/09/30 04:00:00+00,3,20016,Owner/Director,Jeannine@communikids.com,(202) 768-7900,,,,Jeannine Piacenza,,2023/11/16 05:00:00+00,2023/08/21 04:00:00+00,0,0,60,0,60,Zulieka.Crawford@dc.gov,38.93545449,-77.07413281,393572.63,140843.62,3400 IDAHO AVENUE NW,284650,140148
-8568629.7105925,4701376.83431703,Independent  Church Of God Child Development Center,"2302 Ainger PL,  SE ",CDC-102788,Full License,2024/12/27 05:00:00+00,2027/08/31 04:00:00+00,8,20020,Owner/Director,terezeking@hotmail.com,(240) 510-6846,,,,Tereze King,,2020/04/27 04:00:00+00,2024/05/02 04:00:00+00,8,16,20,6,50,kimberly.handon-lindsey@dc.gov,38.8581687,-76.97330806,402316.72,132262.01,2302 AINGER PLACE SE,286787,140149
-8571705.21528836,4710201.86824612,Emergent Preparatory Academy III,"330 Rhode Island AVE, NE ",CDC-102791,Full License,2024/10/02 04:00:00+00,2026/12/31 05:00:00+00,5,20002,Owner/Director,deloresmcgee.emergent@gmail.com,(202) 729-9617,,,,Delores McGee,,2020/11/06 05:00:00+00,2024/09/11 04:00:00+00,8,17,25,0,50,Zulieka.Crawford@dc.gov,38.9198747,-77.00093577,399918.85,139111.52,330 RHODE ISLAND AVENUE NE,155946,140150
-8576830.27694334,4707810.580871,CentroNia @ Stevens Early Learning Center,"1050 21st ST, NW ",CDC-102792,Full License,2024/06/20 04:00:00+00,2027/03/31 04:00:00+00,2,20036,Owner/Director,qjamison@centronia.org,(202) 442-5566,,,,Quianna Jamison,,2021/02/12 05:00:00+00,2024/05/06 04:00:00+00,8,0,28,0,36,kanell.johnson@dc.gov,38.90315941,-77.04697497,395925.39,137257.07,1050 21ST STREET NW,294506,140151
-8564440.56519884,4706431.47999185,Winters Wonderland  Early Child Care,"4623 Clay ST, NE ",CDX-102793,Full License,2024/06/10 04:00:00+00,2027/04/30 04:00:00+00,7,20019,Owner/Director,winterswonderland4623@gmail.com,(202) 790-4347,,,,Stacey Maria Hudson,,2021/03/11 05:00:00+00,2024/01/24 05:00:00+00,3,4,2,0,9,Makia.Tabourn@dc.gov,38.89351812,-76.93567633,405580.19,136187.69,4623 CLAY STREET NE,18987,140152
-8567768.73007848,4703316.7376853,House of Ruth's Kidspace Child and Family Development Center,"2910 Pennsylvania AVE, SE ",CDC-102794,Full License,2024/02/01 05:00:00+00,2027/02/28 05:00:00+00,7,20020,Center Director,tvillanueva@houseofruth.org,(202) 667-7001 x222,,,,Tara Villanueva,,2021/01/27 05:00:00+00,2024/09/30 04:00:00+00,6,32,28,0,66,stephanie.tindal@dc.gov,38.87173706,-76.96557374,402987.45,133768.46,2910 PENNSYLVANIA AVENUE SE,43433,140153
-8577373.46369214,4708287.66153902,Capital Kids DC,"1250 24th ST, NW ",CDC-102796,Full License,2024/05/30 04:00:00+00,2027/05/31 04:00:00+00,2,20037,Owner/Director,sulfyna@gmail.com,(202) 293-1460,,,,Sulfyna Murji,,2021/03/24 04:00:00+00,2024/01/31 05:00:00+00,15,17,30,0,62,yesset.makonnen@dc.gov,38.90649483,-77.0518545,395502.35,137627.52,1250 24TH STREET NW,273946,140154
-8571463.59097178,4714909.86733713,Love and Care Child Development Center,"402 Galloway ST, NE ",CDC-102801,Full License,2024/04/15 04:00:00+00,2027/04/30 04:00:00+00,5,20011,Center Director,Brittany.Ford@loveandcarecdc.com,(202) 652-1057,,,,Brittany Ford,,2021/03/09 05:00:00+00,2023/09/06 04:00:00+00,22,20,48,0,90,stephanie.tindal@dc.gov,38.9527715,-76.99876522,400107.03,142763.39,402 GALLOWAY STREET NE,314546,140155
-8572706.81768912,4716648.9581174,Friendship Public Charter School @ Ideal,"6130 North Capital Street, NW ",CDC-102802,Full License,2024/11/15 05:00:00+00,2027/10/31 04:00:00+00,4,20011,Center Director,ACampbell@friendshipschools.org,(202) 409-1753,,,,Jackson Campbell,,2019/08/05 04:00:00+00,2024/05/28 04:00:00+00,0,24,0,76,100,Zulieka.Crawford@dc.gov,38.96491986,-77.00993332,399139.13,144111.98,6130 NORTH CAPITOL STREET NW,285311,140156
-8571889.67757964,4715145.05825611,Rocketship Infinity Community Prep,"5450 3rd ST, NE ",CDC-102803,Full License,2024/11/22 05:00:00+00,2027/07/31 04:00:00+00,5,20011,Other,rhustedt@rsed.org,(402) 310-9586,,,,Rachel Hustedt,Extended Learning Compliance Specialist,2021/06/21 04:00:00+00,,0,24,0,85,109,ronica.milledge1@dc.gov,38.95441483,-77.00259282,399775.26,142945.78,5450 3RD STREET NE,150991,140157
-8561735.07883485,4706505.13216874,Discovery Learning Academy,"356 Eastern Avenue, NE ",CDC-102804,Full License,2024/07/24 04:00:00+00,2027/05/31 04:00:00+00,7,20019,Owner/Director,dnltysn@gmail.com,(202) 559-8090,,,,Daniel Tyson,,2021/01/28 05:00:00+00,2024/04/24 04:00:00+00,8,20,20,0,48,candia.faison@dc.gov,38.89403307,-76.91137254,407688.53,136246.62,356 EASTERN AVENUE NE,33218,140158
-8576056.87378317,4710765.3544275,Jubilee Jumpstart,"2525 Ontario RD, NW ",CDC-909779,Full License,2024/08/22 04:00:00+00,2026/11/30 05:00:00+00,1,20009,Center Director,Rburgosgil@jubileejumpstart.org,(202) 506-4607,,,,Rosalina Burgos Gil,,2012/11/29 05:00:00+00,2024/11/26 05:00:00+00,16,18,16,0,50,candia.faison@dc.gov,38.92381287,-77.04002737,396529.03,139549.45,2525 ONTARIO ROAD NW,235734,140159
-8573678.50601167,4711558.04928404,Woodbridge Day Care Center III,"424 Irving ST, NW ",CDC-909781,Full License,2024/05/08 04:00:00+00,2027/04/30 04:00:00+00,1,20010,Owner/Director,woodbridgeiiidirector@gmail.com,(202) 882-1740,,,,Orpel Sanders,,2013/05/31 04:00:00+00,2024/02/08 05:00:00+00,6,13,8,0,27,stephanie.tindal@dc.gov,38.92935258,-77.01866214,398381.84,140163.81,424 IRVING STREET NW,229365,140160
-8571322.48604024,4710777.84226337,UPO @ Edgewood Child Development Center,"601 Edgewood ST, NE ",CDC-909804,Full License,2024/05/06 04:00:00+00,2027/04/30 04:00:00+00,5,20017,Center Director,lsampson@upo.org,(202) 529-1582,,,,Laura Sampson,,2009/08/17 04:00:00+00,2024/02/27 05:00:00+00,8,8,16,0,32,ronica.milledge1@dc.gov,38.92390014,-76.99749766,400216.99,139558.38,601 EDGEWOOD STREET NE,289571,140161
-8575546.50895733,4711427.95480302,Barbara Chambers Children's Center,"1470 Irving ST, NW ",CDC-909808,Full License,2023/08/01 04:00:00+00,2026/07/31 04:00:00+00,1,20010,Other,info@barbarachambers.org,(202) 387-6755 x116,,,,Maribel Torres,Executive Director,2017/12/22 05:00:00+00,2024/03/12 04:00:00+00,28,160,24,30,242,jazmin.hunt@dc.gov,38.92844345,-77.03544269,396926.79,140063.32,1470 IRVING STREET NW,284044,140162
-8574739.86466657,4715337.32290278,Bright Start Childcare & Preschool,"5416 Georgia AVE, NW ",CDC-909811,Full License,2024/01/24 05:00:00+00,2026/11/30 05:00:00+00,4,20011,Owner/Director,brightstartcares@gmail.com,(202) 722-2273,,,,Marcia St. Hilaire-Finn,,2015/07/22 04:00:00+00,2024/01/18 05:00:00+00,8,30,38,0,76,kanell.johnson@dc.gov,38.95575759,-77.02819648,397556.04,143095.25,5416 GEORGIA AVENUE NW,253065,140163
-8569105.0675595,4713859.80853665,YMCA Calomiris II,"1918 Allison ST, NE ",CDC-909813,Full License,2024/02/07 05:00:00+00,2026/09/30 04:00:00+00,5,20018,Center Director,csking@ymcadc.org,(202) 526-4089,,,,Andrea Brown,,1999/02/02 05:00:00+00,2025/02/04 05:00:00+00,0,0,0,44,44,candia.faison@dc.gov,38.94543587,-76.97757825,401943.71,141949.27,1918 ALLISON STREET NE,310297,140164
-8568434.0621425,4699869.06215507,Kids Are People Too III,"2275  Savannah ST, SE ",CDC-909818,Temporary Closure,2024/02/02 05:00:00+00,2024/05/01 04:00:00+00,8,20020,Center Director,kidsarepeopletoocdc@gmail.com,(202) 450-3496,,,,Kala Taylor,,2018/08/15 04:00:00+00,2021/10/18 04:00:00+00,0,0,36,0,36,jazmin.hunt@dc.gov,38.84762076,-76.97155052,402469.63,131091.16,2275 SAVANNAH STREET SE,278134,140165
-8573962.75297768,4715404.74573278,Mana Bilingual Child Development Center,"604  Kennedy ST, NW ",CDC-909819,Full License,2023/09/29 04:00:00+00,2026/09/30 04:00:00+00,4,20011,Center Director,manacdc1@gmail.com,(202) 829-0309,,,,Grosbin Gerardo Rodriguez Galvez,,2009/12/10 05:00:00+00,2024/11/19 05:00:00+00,4,10,6,0,20,kimberly.handon-lindsey@dc.gov,38.95622891,-77.02121557,398161.13,143147.37,604 KENNEDY STREET NW,246782,140166
-8568860.78164295,4703269.4861874,Vee's Early Education Center,"2130 Minnesota AVE, SE ",CDC-909820,Full License,2024/01/08 05:00:00+00,2026/12/31 05:00:00+00,8,20020,Owner/Director,veesandassocgroup@gmail.com,(202) 889-6918,,,,Cherrealle Moore,,2009/12/14 05:00:00+00,2024/10/31 04:00:00+00,3,9,9,0,21,Zulieka.Crawford@dc.gov,38.87140693,-76.9753838,402136.16,133731.5,2130 MINNESOTA AVENUE SE,51303,140167
-8573452.55117541,4716800.430503,De Colores Learning Center #2,"308  Sheridan  ST, NW ",CDC-909824,Full License,2024/01/03 05:00:00+00,2027/01/31 05:00:00+00,4,20011,Owner/Director,florencia@decoloresdc.com,(202) 291-2164,,,,Florencia Del Villar,,2011/08/18 04:00:00+00,2024/10/07 04:00:00+00,0,20,16,0,36,yesset.makonnen@dc.gov,38.96597751,-77.01663235,398558.58,144229.51,308 SHERIDAN STREET NW,284574,140168
-8570875.73463782,4706746.25665676,"Capitol Hill Learning Group, LLC","907 Maryland AVE, NE ",CDC-909843,Full License,2023/04/19 04:00:00+00,2026/02/28 05:00:00+00,6,20002,Center Director,marthaherndon.chlg@gmail.com,(202) 316-8990,,,,Martha Herndon,,2010/07/16 04:00:00+00,2024/01/08 05:00:00+00,0,50,0,0,50,ronica.milledge1@dc.gov,38.89571892,-76.99348443,400565.22,136430.05,907 MARYLAND AVENUE NE,81944,140169
-8570378.74056128,4697507.39605377,"Little Apple Childcare Center, LLC","908 Southern AVE, SE ",CDC-909849,Full License,2024/03/13 04:00:00+00,2027/01/31 05:00:00+00,8,20032,Owner/Director,wendyweekes908@hotmail.com,(202) 562-7273,,,,Wendy Weekes,,2010/02/25 05:00:00+00,2023/05/16 04:00:00+00,3,3,9,0,15,ronica.milledge1@dc.gov,38.83109575,-76.98901986,400953.38,129256.48,908 SOUTHERN AVENUE SE,81992,140170
-8570192.49698222,4701199.75340406,Emergent Preparatory Academy,"2801 Stanton RD, SE ",CDC-909852,Full License,2024/10/03 04:00:00+00,2027/01/31 05:00:00+00,8,20020,Owner/Director,deloresmcgee.emergent@gmail.com,(202) 610-3111,,,,Delores Mcgee,,2012/02/24 05:00:00+00,2023/12/07 05:00:00+00,0,31,32,30,93,Zulieka.Crawford@dc.gov,38.85692997,-76.9873468,401098.25,132124.24,2801 STANTON ROAD SE,44747,140171
-8569445.77829761,4700102.14416959,UPO @ Frederick Douglass,"3240 Stanton RD, SE ",CDC-909855,Full License,2024/01/25 05:00:00+00,2026/12/31 05:00:00+00,8,20020,Center Director,awhite@upo.org,(202) 889-2080,,,,Anita White,,2011/03/09 05:00:00+00,2023/12/13 05:00:00+00,16,31,8,0,55,candia.faison@dc.gov,38.8492511,-76.98063892,401680.65,131271.97,3240 STANTON ROAD SE,156534,140172
-8570745.70256892,4711976.45036934,UPO @ Luke C. Moore Academy,"1001 Monroe ST, NE ",CDC-909857,Full License,2024/08/14 04:00:00+00,2027/06/30 04:00:00+00,5,20017,Center Director,jlemons@upo.org,(202) 671-6313,,,,Jacqueline Lemons,,2010/08/23 04:00:00+00,2024/02/14 05:00:00+00,4,0,4,0,8,ronica.milledge1@dc.gov,38.93227638,-76.99231633,400666.21,140488.24,1001 MONROE STREET NE,294504,140173
-8576372.65918402,4707577.08191746,Children's Creative Learning Center,"1875  I ST,  NW ",CDC-909876,Full License,2024/05/01 04:00:00+00,2027/05/31 04:00:00+00,2,20006,Center Director,centerdirectorisquare@gmail.com,(202) 473-7010,,,,Rachel Gordon,,2011/01/24 05:00:00+00,2024/02/13 05:00:00+00,16,24,44,0,84,yesset.makonnen@dc.gov,38.90152739,-77.04286412,396281.88,137075.69,1875 I STREET NW,279443,140174
-8576213.13253373,4708355.60287315,Children's Creative Learning Center @ The World Bank,"1225  Connecticut  AVE, NW ",CDC-909879,Full License,2024/05/01 04:00:00+00,2027/05/31 04:00:00+00,2,20036,Center Director,kzieleniewski@worldbank.org,(202) 473-7010,,,,Katarzyna Teodozja Zieleniewski,,2011/01/24 05:00:00+00,2024/02/13 05:00:00+00,16,88,21,0,125,yesset.makonnen@dc.gov,38.90696976,-77.04143107,396406.46,137679.78,1225 CONNECTICUT AVENUE NW,241767,140175
-8576407.82121338,4710434.4473414,Lanier Lullabies Child Development Center,"1844  Columbia RD, NW ",CDC-909885,Full License,2023/10/03 04:00:00+00,2026/09/30 04:00:00+00,1,20009,Center Director,lanierlullabies@yahoo.com,(202) 525-1556,,,,Julie Lujan,,2010/12/16 05:00:00+00,2024/03/12 04:00:00+00,8,0,9,5,22,candia.faison@dc.gov,38.92150021,-77.04317999,396255.53,139292.85,1844 COLUMBIA ROAD NW,226499,140176
-8564203.79648714,4704333.6285651,Manley Science and Technology Center,"4628 H ST, SE ",CDC-910001,Full License,2024/03/08 05:00:00+00,2026/12/31 05:00:00+00,7,20019,Owner/Director,manleysciencecdc@gmail.com,(202) 584-7334,,,,Victoria Manley,,2012/11/30 05:00:00+00,2024/12/24 05:00:00+00,8,6,16,0,30,kanell.johnson@dc.gov,38.87884903,-76.93354941,405765.89,134559.44,4628 H STREET SE,18660,140177
-8576819.66102741,4707931.25231513,Bright Horizons @ L Street,"2101 L ST, NW ",CDC-910010,Full License,2024/01/19 05:00:00+00,2026/12/31 05:00:00+00,2,20037,Center Director,lstreet@brighthorizons.com,(202) 887-8433,,,,Kisha Foy,,2011/05/17 04:00:00+00,2024/10/17 04:00:00+00,32,52,64,0,148,candia.faison@dc.gov,38.90400333,-77.04687961,395933.71,137350.71,2101 L STREET NW,242479,140178
-8574096.42589824,4713883.57148444,Euphemia L. Haynes Public Charter School,"4501 Kansas AVE, NW ",CDC-910013,Full License,2024/07/17 04:00:00+00,2027/02/28 05:00:00+00,4,20011,Other,esedp@elhaynes.org,(202) 379-8066,,,,Juanita Hall,Assistant Site Coordinator/Program Assistant,2011/03/25 04:00:00+00,2024/03/27 04:00:00+00,0,136,0,103,239,yesset.makonnen@dc.gov,38.94560189,-77.02241638,398056.76,141967.7,4501 KANSAS AVENUE NW,284930,140179
-8568422.09546461,4699875.97289126,Kids Are People Too CDC IV,"2279 Savannah ST, SE ",CDC-910016,Temporary Closure,2024/02/02 05:00:00+00,2024/05/01 04:00:00+00,8,20020,Center Director,kidsarepeopletoocdc@gmail.com,(202) 450-3496,,,,Kala Taylor,,2016/09/16 04:00:00+00,2021/10/18 04:00:00+00,8,0,5,0,13,jazmin.hunt@dc.gov,38.84766911,-76.97144302,402478.96,131096.53,2279 SAVANNAH STREET SE,278135,140180
-8574037.43594652,4711423.72558468,Woodbridge Day Care Center IV,"629 Columbia RD, NW ",CDC-910028,Full License,2024/05/08 04:00:00+00,2027/04/30 04:00:00+00,1,20001,Center Director,Woodbridge_corporate@yahoo.com,(202) 370-6260,,,,Annette Brown,,2013/06/07 04:00:00+00,2025/01/14 05:00:00+00,6,13,8,0,27,stephanie.tindal@dc.gov,38.92841389,-77.02188646,398102.24,140059.67,629 COLUMBIA ROAD NW,237890,140181
-8568882.9504753,4706585.61988016,AppleTree Early Learning PCS - Oklahoma Ave. Campus,"330  21st  ST, NE ",CDC-910032,Full License,2024/08/27 04:00:00+00,2027/02/28 05:00:00+00,7,20002,Other,danielle.jones@appletreeinstitute.org,(202) 629-2179,,,,Devon Tucker,District Operations & Compliance Manager,2011/07/08 04:00:00+00,2024/03/06 05:00:00+00,0,144,0,0,144,candia.faison@dc.gov,38.89459581,-76.97558295,402118.19,136305.64,330 21ST STREET NE,307321,140182
-8568809.16239669,4700032.36600167,AppleTree Early Learning PCS - Douglas Knoll Campus,"2017 Savannah TER, SE ",CDC-910033,Full License,2024/09/24 04:00:00+00,2027/01/31 05:00:00+00,8,20020,Other,devon.tucker@appletreeinstitute.org,(202) 629-2545,,,,Devon Tucker,Operations & Compliance Specialist,2011/08/11 04:00:00+00,2024/03/21 04:00:00+00,0,80,0,0,80,candia.faison@dc.gov,38.84876326,-76.9749201,402177.09,131217.9,2017 SAVANNAH TERRACE SE,278045,140183
-8574195.25279164,4712620.98390667,The Ideal Child Care Development Center II,"801 Rock Creek Church RD, NW ",CDC-910047,Full License,2024/08/16 04:00:00+00,2026/10/31 04:00:00+00,4,20010,Owner/Director,ideald1@verizon.net,(202) 722-0633,,,,Yves-Carmel Decelian Cadet,,2011/09/16 04:00:00+00,2024/04/22 04:00:00+00,16,20,16,0,52,stephanie.tindal@dc.gov,38.93678017,-77.02330415,397979.55,140988.43,801 ROCK CREEK CHURCH ROAD NW,228315,140184
-8569385.45671132,4711202.13786795,Growth Spurts Child Learning Center @ Judah,"1715  Rhode Island AVE, NE ",CDC-910051,Full License,2024/06/17 04:00:00+00,2026/09/30 04:00:00+00,5,20018,Owner/Director,growthspurtscdc@aol.com,(202) 258-5220,,,,Calvin Smith,,2009/04/30 04:00:00+00,2024/04/23 04:00:00+00,0,15,0,16,31,jazmin.hunt@dc.gov,38.92686536,-76.98009703,401725.81,139887.73,1715 RHODE ISLAND AVENUE NE,57426,140185
-8573209.85607725,4707673.55026236,Kids Come First - Unit 2,"200  K ST, NW SUITE 2",CDC-910052,Full License,2024/12/06 05:00:00+00,2027/01/31 05:00:00+00,6,20001,Center Director,cdysonkcf@gmail.com,(202) 733-1213,,,,Chiquita Dyson,,2014/04/11 04:00:00+00,2024/04/29 04:00:00+00,8,9,40,0,57,jazmin.hunt@dc.gov,38.90220146,-77.01445219,398746.4,137149.78,200 K STREET NW,238362,140186
-8573209.85607725,4707673.55026236,Kids Come First - Unit 5,"200 K ST, NW SUITE 5",CDC-910055,Full License,2024/07/12 04:00:00+00,2026/12/31 05:00:00+00,6,20001,Center Director,cdysonkcf@gmail.com,(202) 733-1213,,,,Chiquita Dyson,,2014/04/11 04:00:00+00,2024/04/17 04:00:00+00,8,0,14,0,22,jazmin.hunt@dc.gov,38.90220146,-77.01445219,398746.4,137149.78,200 K STREET NW,238362,140187
-8573859.15683989,4715393.65338485,Blandi's Child Learning Center,"504 Kennedy ST, NW ",CDC-910057,Full License,2023/08/21 04:00:00+00,2026/07/31 04:00:00+00,4,20011,Owner/Director,blandichildlearningcenter@yahoo.com,(202) 248-6347,,,,Blandina Fernandez,,2011/11/03 04:00:00+00,2024/12/09 05:00:00+00,16,22,26,0,64,candia.faison@dc.gov,38.95615142,-77.02028495,398241.79,143138.75,504 KENNEDY STREET NW,285060,140188
-8575242.82079487,4706072.20227247,Smithsonian Early Enrichment Center I - AHM,"1400  Constitution AVE, NW ",CDC-910075,Full License,2024/08/22 04:00:00+00,2026/12/31 05:00:00+00,2,20560,Other,mcmahonm@si.edu,(202) 633-3660,,,,Meredith McMahon,Executive Director,,2024/01/08 05:00:00+00,0,55,0,0,55,candia.faison@dc.gov,38.89100578,-77.03271462,397161.85,135907.38,1400 CONSTITUTION AVENUE NW,310702,140189
-8574665.65293446,4715153.31546459,Curious Mind Child Development Center,"5309 Georgia  AVE, NW ",CDC-910080,Full License,2024/09/23 04:00:00+00,2027/02/28 05:00:00+00,4,20011,Owner/Director,info@curiousmindchildcare.com,(202) 536-5010,,,,Braudilia Mendez,,2015/03/24 04:00:00+00,2024/09/04 04:00:00+00,8,0,8,0,16,stephanie.tindal@dc.gov,38.95447251,-77.02752983,397613.78,142952.54,5309 GEORGIA AVENUE NW,254651,140190
-8575548.65896819,4710016.88972296,Semillitas Early Learning Center,"2100  New Hampshire AVE, NW ",CDC-910083,Full License,2024/05/02 04:00:00+00,2026/12/31 05:00:00+00,1,20009,Center Director,info@semillitaschildcare.com,(202) 588-0035,,,,Violeta Chirino,,2012/01/10 05:00:00+00,2024/05/02 04:00:00+00,8,9,8,0,25,candia.faison@dc.gov,38.91858185,-77.03546201,396924.69,138968.6,2100 NEW HAMPSHIRE AVENUE NW,299902,140191
-8566366.16408901,4707440.69016421,Educare of Washington DC,"640 Anacostia AVE, NE ",CDC-910085,Full License,2024/05/16 04:00:00+00,2027/01/31 05:00:00+00,7,20019,Center Director,kjohnson1@educaredc.org,(202) 727-5604,,,,Krystina Johnson,,2012/05/08 04:00:00+00,2024/04/11 04:00:00+00,16,70,89,0,175,kanell.johnson@dc.gov,38.90057388,-76.95297428,404079.16,136970.02,640 ANACOSTIA AVENUE NE,309405,140192
-8576343.28749285,4706564.10363396,Fingerprints Child Development Center,"1849  C ST, NW ",CDC-910096,Full License,2024/04/01 04:00:00+00,2027/03/31 04:00:00+00,2,20240,Center Director,fngr@brighthorizons.com,(202) 219-1127,,,,Sarah Serenius,,2014/09/30 04:00:00+00,2024/09/17 04:00:00+00,16,35,30,0,81,candia.faison@dc.gov,38.89444538,-77.04260027,396304.4,136289.52,1849 C STREET NW,293214,140193
-8569644.93700945,4706852.50933671,UPO @ Azeeze Bates,"444 16th ST, NE ",CDC-910099,Full License,2024/08/20 04:00:00+00,2027/06/30 04:00:00+00,7,20002,Center Director,nervin@upo.org,(202) 388-7960,,,,Nicole Ervin,,2013/05/03 04:00:00+00,2023/10/27 04:00:00+00,8,0,24,0,32,ronica.milledge1@dc.gov,38.89646178,-76.98242799,401524.34,136512.64,444 16TH STREET NE,277568,140194
-8574803.54586109,4713307.00200677,CentroNia @ Upshur Street,"1288 Upshur ST, NW ",CDC-910102,Full License,2023/10/31 04:00:00+00,2026/10/31 04:00:00+00,4,20011,Center Director,rpinillos@centronia.org,(202) 726-1275,,,,Raquel Pinillos,,2017/10/05 04:00:00+00,2023/10/26 04:00:00+00,16,28,16,0,60,Zulieka.Crawford@dc.gov,38.94157353,-77.02876854,397505.96,141520.67,1288 UPSHUR STREET NW,223664,140195
-8574613.80140089,4706226.28268961,Smithsonian Early Enrichment Center II - NHM,"1000 Constitution AVE, NW ",CDC-910115,Restricted,2025/01/22 05:00:00+00,2025/04/21 04:00:00+00,6,20004,Other,McMahonM@si.edu,(202) 633-1399,,,,Meredith McMahon,Kia Holt Williams,,2023/08/16 04:00:00+00,8,27,32,20,87,kimberly.handon-lindsey@dc.gov,38.89208309,-77.02706404,397652.1,136026.81,,809136,140196
-8564986.8309699,4707486.7607796,Kids Are People Too CDC V,"4315 Nannie Helen Burroughs AVE, NE ",CDC-910116,Full License,2024/03/19 04:00:00+00,2027/01/31 05:00:00+00,7,20019,Center Director,kaptcdc@gmail.com,(202) 397-1200,,,,Ruth Thompson,,2016/12/09 05:00:00+00,2023/09/27 04:00:00+00,24,0,76,0,100,jazmin.hunt@dc.gov,38.90089596,-76.94058352,405153.95,137006.4,4315 NANNIE HELEN BURROUGHS AVENUE NE,310999,140197
-8575687.82636285,4719556.77081642,Trusting Hands Child Development Center,"7750  16th ST, NW ",CDC-910138,Full License,2024/09/09 04:00:00+00,2026/10/31 04:00:00+00,4,20012,Center Director,tecnwilliams@gmail.com,(202) 285-4168,,,,Tracie Williams,,2021/02/04 05:00:00+00,2024/05/07 04:00:00+00,15,0,5,0,20,candia.faison@dc.gov,38.98522676,-77.03671216,396819.25,146366.87,7750 16TH STREET NW,256418,140198
-8562998.88248341,4706901.40729646,UPO @ H. D. Woodson High School,"540  55th ST, NE ",CDC-910147,Full License,2024/07/15 04:00:00+00,2026/05/31 04:00:00+00,7,20019,Center Director,juwright@upo.org,(202) 658-9395,,,,Juliet Wright-Fuller,,2013/08/15 04:00:00+00,2024/06/27 04:00:00+00,6,0,5,0,11,Zulieka.Crawford@dc.gov,38.89680331,-76.92272548,406703.39,136553.28,540 55TH STREET NE,309633,140199
-8569717.21303385,4703080.34176801,UPO @ Anacostia High School,"1601 16th ST, SE ",CDC-910148,Full License,2023/12/15 05:00:00+00,2026/10/31 04:00:00+00,8,20020,Center Director,nterry@upo.org,(202) 724-4135,,,,Natasha Terry,,2013/08/15 04:00:00+00,2023/12/12 05:00:00+00,8,0,16,0,24,stephanie.tindal@dc.gov,38.87008406,-76.98307725,401468.56,133584.5,1601 16TH STREET SE,155922,140200
-8575090.44647478,4710124.47427862,Future Leaders Academy @ YMCA Anthony Bowen,"1325 W ST, NW ",CDC-910151,Full License,2024/12/12 05:00:00+00,2026/12/31 05:00:00+00,1,20009,Other,dana.noble@ymcadc.org,(202) 232-6936,,,,Dana Noble,Program Director,2013/07/01 04:00:00+00,2024/06/20 04:00:00+00,0,0,0,30,30,stephanie.tindal@dc.gov,38.91933378,-77.03134581,397281.68,139051.94,1325 W STREET NW,240290,140201
-8578732.90502212,4708315.3775123,The French Maternal School @ N Street,"3224  N ST, NW ",CDC-910157,Full License,2023/10/03 04:00:00+00,2026/09/30 04:00:00+00,2,20007,Center Director,ppacot@frenchmaternalschool.com,(202) 333-0183,,,,Peggy Pacot,,2013/06/10 04:00:00+00,2024/02/22 05:00:00+00,0,51,9,0,60,candia.faison@dc.gov,38.90668824,-77.06406657,394443.14,137649.7,3224 N STREET NW,272154,140202
-8575130.01408968,4712923.1414532,Little Praudde Child Developmentcenter LLC,"1341 Randolph ST, NW ",CDC-910160,Full License,2024/06/10 04:00:00+00,2026/12/31 05:00:00+00,4,20011,Center Director,praudde_homecare2009@yahoo.com,(202) 299-6313,,,,Sonia Parada,,2013/08/16 04:00:00+00,2023/11/29 05:00:00+00,6,3,4,0,13,kimberly.handon-lindsey@dc.gov,38.93889145,-77.03170125,397251.61,141223.02,1341 RANDOLPH STREET NW,225136,140203
-8582882.69154668,4711306.71736648,Palisades Montessori LLC,"2828  Hurst TER, NW ",CDC-910161,Full License,2024/01/30 05:00:00+00,2027/01/31 05:00:00+00,3,20016,Center Director,gwendolyn@palisadesmontessori.com,(202) 537-6807,,,,Gwendolyn Hines,,2013/06/06 04:00:00+00,2024/12/05 05:00:00+00,0,24,0,0,24,yesset.makonnen@dc.gov,38.92759621,-77.10134472,391212.37,139973.55,2828 HURST TERRACE NW,224133,140204
-8571854.51700871,4697235.31832433,"Jewel's New Beginning Learning Center, LLC","4309  3rd  ST, SE ",CDC-910163,Full License,2024/04/04 04:00:00+00,2026/08/31 04:00:00+00,8,20032,Owner/Director,jewel@jnblc.org,(202) 506-3124,,,,Jewel Parker,,2018/11/19 05:00:00+00,2024/04/01 04:00:00+00,0,12,13,10,35,ronica.milledge1@dc.gov,38.8291921,-77.00227698,399802.29,129045.07,4309 3RD STREET SE,295828,140205
-8573013.85444987,4708449.55946741,UPO @ Dunbar High School,"101 N ST, NW ",CDC-910165,Full License,2024/02/21 05:00:00+00,2027/02/28 05:00:00+00,5,20001,Center Director,vfonge@upo.org,(202) 724-4407,,,,Victorine Fonge,,2013/08/15 04:00:00+00,2024/03/15 04:00:00+00,8,0,2,0,10,ronica.milledge1@dc.gov,38.90762655,-77.01269148,398899.21,137751.95,101 N STREET NW,309947,140206
-8575358.27660928,4715234.09047321,Estrellitas Montessori School,"5331 Colorado AVE, NW ",CDC-910167,Full License,2023/11/17 05:00:00+00,2026/11/30 05:00:00+00,4,20011,Center Director,info@estrellitasdc.com,(202) 248-7827,,,,Brenda Vasquez Bercian,,2013/06/18 04:00:00+00,2023/08/30 04:00:00+00,38,46,64,0,148,kimberly.handon-lindsey@dc.gov,38.95503678,-77.03375177,397074.5,143015.36,5331 COLORADO AVENUE NW,255845,140207
-8578915.94681501,4708921.94548227,"Little Folks School, Inc.","3247 Q ST, NW ",CDC-910169,Full License,2024/02/05 05:00:00+00,2027/01/31 05:00:00+00,2,20007,Center Director,littlefolks@littlefolks.org,(202) 333-6571,,,,James Gilroy,,2013/09/10 04:00:00+00,2024/10/23 04:00:00+00,0,17,51,0,68,yesset.makonnen@dc.gov,38.91092828,-77.06571086,394300.86,138120.48,3247 Q STREET NW,305086,140208
-8570248.59660023,4702641.40309558,Baby Einstein Child Development Center,"1225 Good Hope RD, SE ",CDC-910173,Restricted,2025/02/27 05:00:00+00,2025/03/28 04:00:00+00,8,20020,Center Director,rs2720@yahoo.com,(202) 610-5437,,,,Regina Snead,,2014/02/03 05:00:00+00,2024/10/15 04:00:00+00,8,23,15,6,52,Zulieka.Crawford@dc.gov,38.86701405,-76.98785075,401054.36,133243.64,1225 GOOD HOPE ROAD SE,70926,140209
-8570477.33838303,4702226.56157449,Bethel Christian Fellowship Early Childhood Development Center,"2220 Martin Luther King AVE, SE ",CDC-910174,Full License,2023/04/04 04:00:00+00,2026/03/31 04:00:00+00,8,20020,Center Director,bcfcdc@gmail.com,(202) 678-8934,,,,Wanda Edwards,,2017/01/19 05:00:00+00,2024/01/04 05:00:00+00,0,32,0,0,32,kimberly.handon-lindsey@dc.gov,38.86411245,-76.98990557,400876.07,132921.52,2220 MARTIN LUTHER KING JR AVENUE SE,50017,140210
-8575224.54756535,4715466.60690807,Mana Bilingual Child Development Center 2,"5511 Colorado AVE, NW ",CDC-910190,Full License,2024/03/12 04:00:00+00,2027/01/31 05:00:00+00,4,20011,Center Director,manacdc1@gmail.com,(202) 722-1638,,,,Grosbin Gerardo Rodriguez Galvez,,2014/07/11 04:00:00+00,2024/11/19 05:00:00+00,8,16,26,0,50,kimberly.handon-lindsey@dc.gov,38.95666071,-77.03255046,397178.69,143195.63,5511 COLORADO AVENUE NW,254851,140211
-8564296.34601288,4704873.05497593,YMCA @ KIPP DC  Benning Road,"4801 Benning RD, SE ",CDC-910191,Full License,2024/05/23 04:00:00+00,2026/10/31 04:00:00+00,7,20019,Other,theresa.williams@YMCADC.ORG,(240) 640-0684,,,,Theresa Williams,POC,2012/09/26 04:00:00+00,2023/09/20 04:00:00+00,0,24,0,75,99,kimberly.handon-lindsey@dc.gov,38.88262089,-76.93438079,405693.45,134978.13,4801 BENNING ROAD SE,17421,140212
-8569014.13012328,4709890.51675197,"Loving Care Day Nursery, Inc  #2","1818 New York AVE, NE  #101 ",CDC-910198,Full License,2024/01/12 05:00:00+00,2026/12/31 05:00:00+00,5,20002,Owner/Director,anniepankey@hotmail.com,(202) 547-1877,,,,Annie Pankey,,2014/05/21 04:00:00+00,2024/03/18 04:00:00+00,40,64,80,0,184,candia.faison@dc.gov,38.91769826,-76.97676135,402015.31,138870.21,1818 NEW YORK AVENUE NE,55416,140213
-8574070.72811197,4709313.41957567,Barbara Chambers Children's  Center #2,"1734 7th ST, NW ",CDC-910207,Full License,2024/03/05 05:00:00+00,2027/02/28 05:00:00+00,2,20001,Center Director,marese@barbarachambers.org,(202) 518-0456,,,,Maria Arese,,2011/07/22 04:00:00+00,2024/03/12 04:00:00+00,12,0,24,0,36,kimberly.handon-lindsey@dc.gov,38.91366496,-77.02218553,398075.91,138422.42,1734 7TH STREET NW,279361,140214
-8573174.32511685,4713449.377689,Gap Community Childcare Center Inc.,"209  Upshur ST, NW ",CDC-910214,Full License,2025/01/28 05:00:00+00,2026/09/30 04:00:00+00,4,20011,Owner/Director,thardmon@gapccc.com,(202) 462-3636,,,,Travis Hardmon,,2014/07/14 04:00:00+00,2024/09/04 04:00:00+00,23,36,52,0,111,stephanie.tindal@dc.gov,38.94256796,-77.01413301,398774.78,141630.8,209 UPSHUR STREET NW,307112,140215
-8573017.82270494,4715491.81304973,Happy Feet LLC,"127  Kennedy  ST, NW ",CDC-910216,Full License,2024/10/24 04:00:00+00,2026/12/31 05:00:00+00,4,20011,Center Director,HAPPYFEETDC1@GMAIL.COM,(202) 297-4216,,,,John Mejia,,2014/07/02 04:00:00+00,2023/11/20 05:00:00+00,8,8,8,0,24,kimberly.handon-lindsey@dc.gov,38.95683712,-77.01272712,398896.88,143214.75,127 KENNEDY STREET NW,245866,140216
-8575242.95264976,4705542.94513569,USDA Child Development Center,"201 14th ST, SW First Floor",CDC-910220,Full License,2023/12/15 05:00:00+00,2026/11/30 05:00:00+00,2,20004,Center Director,elba.lopez@kindercare.com,(202) 205-1133,,,,Elba Lopez,,2014/06/23 04:00:00+00,2024/12/06 05:00:00+00,16,48,16,0,80,kanell.johnson@dc.gov,38.88730514,-77.0327158,397161.6,135496.58,201 14TH STREET SW,291704,140217
-8572075.65637119,4706881.65237366,Thurgood Marshall Child Development  Center,"1 Columbus CIR, NE ",CDC-910226,Full License,2024/01/08 05:00:00+00,2026/09/30 04:00:00+00,6,20002,Center Director, director@tmcdc.org,(202) 502-2475,,,,Sharon Hall- Fleming,,,2024/09/11 04:00:00+00,18,20,32,0,70,jazmin.hunt@dc.gov,38.89666519,-77.0042635,399630.15,136535.12,1 COLUMBUS CIRCLE NE,285727,140218
-8574119.66986578,4715396.71262683,"Meriam  Academy, LLC","704 Kennedy ST, NW ",CDC-910230,Full License,2024/04/17 04:00:00+00,2027/04/30 04:00:00+00,4,20011,Other,MERIAMACADEMY@GMAIL.COM,(202) 248-1848,,,,Meriam Guiral,Owner,2014/10/31 04:00:00+00,2024/01/04 05:00:00+00,5,18,5,0,28,candia.faison@dc.gov,38.95617279,-77.02262518,398038.95,143141.17,704 KENNEDY STREET NW,250247,140219
-8563316.99755775,4705831.58213477,Shining Star Early Learning Center,"5307  East Capitol ST,  SE ",CDC-910243,Full License,2023/10/17 04:00:00+00,2026/09/30 04:00:00+00,7,20019,Center Director,shiningstarearlylearningcenter@gmail.com,(202) 506-5830,,,,Tanya Green,,2016/03/21 04:00:00+00,2024/03/26 04:00:00+00,8,8,8,0,24,Zulieka.Crawford@dc.gov,38.88932368,-76.92558316,406456.17,135722.74,5307 EAST CAPITOL STREET SE,147569,140220
-8571752.71722062,4698567.19190861,UPO @ Ballou High School,"3401 4th ST, SE ",CDC-910249,Full License,2024/05/03 04:00:00+00,2027/04/30 04:00:00+00,8,20032,Center Director,mmcneely@upo.org,(202) 645-6689,,,,Michele McNeely,,2015/02/10 05:00:00+00,2023/12/18 05:00:00+00,12,0,18,0,30,ronica.milledge1@dc.gov,38.83851166,-77.0013625,399881.71,130079.64,3401 4TH STREET SE,294567,140221
-8567116.17995902,4702820.85461529,Agape Woodland Tigers Children Academy #3,"3200 S ST, SE ",CDC-910251,Full License,2024/02/20 05:00:00+00,2027/01/31 05:00:00+00,7,20020,Center Director,agapecabbagepatchinfant@yahoo.com,(202) 575-0694,,,,Marlynn J. Dickson,,2015/05/13 04:00:00+00,2024/11/14 05:00:00+00,16,6,36,16,74,Zulieka.Crawford@dc.gov,38.86826918,-76.95971178,403496.31,133383.67,3200 S STREET SE,38824,140222
-8567910.32635616,4710802.90139101,Gatari Child Development Center,"2628  Bladensburg RD, NE ",CDC-910259,Full License,2024/05/16 04:00:00+00,2026/12/31 05:00:00+00,5,20018,Owner/Director, Blatifa2589@yahoo.com,(202) 838-9880,,,,Latifa Boukari,,2017/01/24 05:00:00+00,2024/12/19 05:00:00+00,8,8,20,0,36,kanell.johnson@dc.gov,38.92407527,-76.96684572,402874.96,139578.34,2628 BLADENSBURG ROAD NE,308140,140223
-8573072.5894624,4708657.52165336,Friendship Public Charter School @ Armstrong Campus,"1400  First  ST, NW ",CDC-910266,Full License,2024/01/26 05:00:00+00,2027/01/31 05:00:00+00,5,20001,Other,Acampbell@friendshipschools.org,(202) 281-1712,,,,Jackson Campbell,Compliance Manager,2015/06/17 04:00:00+00,2023/07/27 04:00:00+00,0,50,0,125,175,Zulieka.Crawford@dc.gov,38.90907993,-77.0132191,398853.47,137913.33,1400 1ST STREET NW,238253,140224
-8571063.16294199,4707011.50425197,"Kiddie University Capitol Hill, LLC D/B/A University For Kids","728  F ST, NE ",CDC-910283,Full License,2024/03/22 04:00:00+00,2027/02/28 05:00:00+00,6,20002,Center Director,pmcfadden@kiddieuniversity.com,(202) 544-4544,,,,Patricia Burton-McFadden,,2015/12/02 05:00:00+00,2023/08/31 04:00:00+00,9,7,26,0,42,ronica.milledge1@dc.gov,38.89757303,-76.99516812,400419.15,136635.9,728 F STREET NE,78138,140225
-8575314.31735869,4711113.19429973,"The Clark Inn of Samaritan Inns, Inc","1422  Harvard ST, NW ",CDC-910286,Full License,2024/09/09 04:00:00+00,2027/02/28 05:00:00+00,1,20009,Center Director,gwendolyn@samaritaninns.org,(202) 234-0904,,,,Gwendolyn Mayfield,,2015/11/23 05:00:00+00,2024/07/18 04:00:00+00,6,9,6,0,21,Makia.Tabourn@dc.gov,38.92624378,-77.03335688,397107.56,139819.07,1422 HARVARD STREET NW,234317,140226
-8567035.4902977,4702832.38463649,The Happy Kids Learning Center,"3233  Pennsylvania AVE, SE ",CDC-910287,Full License,2024/04/29 04:00:00+00,2027/02/28 05:00:00+00,7,20020,Center Director,thehappykidslc@gmail.com,(202) 581-0042,,,,Hazel Haupt,,2015/09/21 04:00:00+00,2023/09/21 04:00:00+00,18,0,52,0,70,stephanie.tindal@dc.gov,38.86834949,-76.95898694,403559.21,133392.65,3233 PENNSYLVANIA AVENUE SE,37792,140227
-8575269.95608307,4711880.54215065,Barbara Chambers Children's Center #3 @Dance Institute,"3400 14th ST, NW ",CDC-910293,Full License,2023/08/02 04:00:00+00,2026/07/31 04:00:00+00,1,20010,Center Director,arivera@barbarachambers.org,(202) 518-0466,,,,Ana Rivera,,2018/10/29 04:00:00+00,2024/03/14 04:00:00+00,16,36,21,0,73,jazmin.hunt@dc.gov,38.93160618,-77.03295837,397142.33,140414.33,3400 14TH STREET NW,302547,140228
-8568425.52914575,4703471.94380808,Brenda Smith,"2415 Minnesota AVE, SE ",CDH-906936,Full License,2024/03/06 05:00:00+00,2026/12/31 05:00:00+00,8,20020,Home Provider,brendajsmith227@gmail.com,(202) 583-0052,,,,Brenda Smith,,2006/05/17 04:00:00+00,2023/10/19 04:00:00+00,2,0,3,0,5,stephanie.tindal@dc.gov,38.87282288,-76.97147386,402475.41,133888.78,2415 MINNESOTA AVENUE SE,47542,140229
-8571265.05210424,4713488.97336712,Nellie Sydnor,"4403  6th PL, NE ",CDH-907995,Full License,2023/10/27 04:00:00+00,2026/10/31 04:00:00+00,5,20017,Home Provider,dede.sydnor@yahoo.com,(202) 269-4283,,,,Nellie Sydnor,,1995/02/01 05:00:00+00,2023/08/21 04:00:00+00,2,2,2,0,6,jazmin.hunt@dc.gov,38.94284461,-76.99698172,400261.66,141661.42,4403 6TH PLACE NE,22381,140230
-8571286.12023992,4706527.26515233,Yvonne Stewart Delancey,"639  Maryland AVE, NE ",CDH-908297,Restricted,2024/12/27 05:00:00+00,2025/03/27 04:00:00+00,6,20002,Other,brebrecdh@yahoo.com,(202) 544-0767,,,,Yvonne Stewart Delancey,HOME PROVIDER,2000/04/04 04:00:00+00,2023/10/18 04:00:00+00,2,2,2,0,6,Zulieka.Crawford@dc.gov,38.89418782,-76.99717098,400245.42,136260.07,639 MARYLAND AVENUE NE,2273,140231
-8565410.47513282,4704603.06469887,Marlene A Hudson,"708  Adrian ST, SE ",CDH-908545,Full License,2024/10/07 04:00:00+00,2027/02/28 05:00:00+00,7,20019,Owner/Director,HUDSONCHILDDEVELOPMENT@GMAIL.COM,(202) 575-5139,,,,Marlene Hudson,,1994/12/01 05:00:00+00,2024/10/09 04:00:00+00,2,2,2,0,6,Makia.Tabourn@dc.gov,38.88073321,-76.94438918,404825.2,134767.97,708 ADRIAN STREET SE,76674,140232
-8566967.46070787,4705218.20966088,Little Lamb Child Care/Artimitia J. Mitchell,"3341 Dubois PL, SE ",CDH-908763,Full License,2023/12/15 05:00:00+00,2026/11/30 05:00:00+00,7,20019,Home Provider,georgesampson40@yahoo.com,(202) 582-4226,,,,Artimita Mitchell,,2010/03/05 05:00:00+00,2024/08/15 04:00:00+00,2,2,2,0,6,candia.faison@dc.gov,38.88503478,-76.95837582,403611.4,135244.83,3341 DUBOIS PLACE SE,35829,140233
-8570038.7664165,4714651.20677875,Voices of Little Angels Child Development Home/Alice Burt,"5026 14th ST, NE ",CDH-908872,Full License,2024/01/22 05:00:00+00,2026/12/31 05:00:00+00,5,20017,Home Provider,voicesoflittleangelschildcdh@gmail.com,(202) 526-6809,,,,Alice Burt,,1997/05/16 04:00:00+00,2024/08/28 04:00:00+00,2,0,4,0,6,candia.faison@dc.gov,38.95096484,-76.98596581,401216.51,142562.89,5026 14TH STREET NE,14814,140234
-8563885.4215829,4707747.66673888,Diane Jackson,"4962 Just ST, NE ",CDH-909046,Restricted,2025/01/17 05:00:00+00,2025/03/24 04:00:00+00,7,20019,Home Provider,tinytots4962@yahoo.com,(202) 455-9311,,,,Diane Jackson,,2012/10/04 04:00:00+00,2023/07/10 04:00:00+00,0,2,2,2,6,kanell.johnson@dc.gov,38.90271959,-76.93068939,406012.04,137209.48,4962 JUST STREET NE,288380,140235
-8567215.42834813,4701859.7083062,Alfreda Wright-Brown/ Freedie's Beloved Childcare,"3217 Alabama  AVE, SE ",CDH-909361,Full License,2024/05/20 04:00:00+00,2026/12/31 05:00:00+00,7,20020,Home Provider,alfredawrightbrown93@yahoo.com,(202) 560-5296,,,,Alfreda Wright-Brown,,2002/03/14 04:00:00+00,2024/12/04 05:00:00+00,2,0,4,0,6,Zulieka.Crawford@dc.gov,38.86154641,-76.96060335,403419.26,132637.36,3217 ALABAMA AVENUE SE,38230,140236
-8569499.16725164,4701148.08348792,Tiny Tots Childcare Development Home LLC,"2419 17th ST, SE ",CDH-909484,Full License,2023/09/22 04:00:00+00,2026/07/31 04:00:00+00,8,20020,Home Provider,tinytotsdc@icloud.com ,(202) 870-8378,,,,Anita Miller Tolliver,,2009/10/16 04:00:00+00,2024/08/07 04:00:00+00,2,0,2,2,6,stephanie.tindal@dc.gov,38.85656819,-76.98111852,401638.85,132084.21,2419 17TH STREET SE,47384,140237
-8573541.39967096,4713557.17855991,Marjorie McCollough-Jackson,"4300  4th ST, NW ",CDH-909499,Full License,2023/10/25 04:00:00+00,2026/10/31 04:00:00+00,4,20011,Home Provider,urjewelstreasures@hotmail.com,(202) 726-3968,,,,Marjorie Mccollough-Jackson,,2009/09/14 04:00:00+00,2024/11/01 04:00:00+00,2,2,2,0,6,Makia.Tabourn@dc.gov,38.94332149,-77.01743049,398488.93,141714.46,4300 4TH STREET NW,248097,140238
-8570270.07175877,4712957.17703401,La'Vel P. Jackson,"4017 13th ST, NE ",CDH-909523,Full License,2023/12/15 05:00:00+00,2026/11/30 05:00:00+00,5,20017,Home Provider,thereadingroomcdp@gmail.com,(202) 469-2782,,,,La'Vel Jackson,,2002/04/16 04:00:00+00,2024/12/24 05:00:00+00,2,0,3,0,5,candia.faison@dc.gov,38.93912927,-76.98804366,401036.57,141249.01,4017 13TH STREET NE,27897,140239
